[{"station":"Athabasca","region":"AB","dhdbt":-35,"dcdbt":27,"degday":6000,"strange":12,"ohr":11,"dgtemp":5,"janWind":10,"julWind":10,"monthlyTemps":[-15,-11,-4,4,11,14,16,15,10,4,-6,-13],"lat":54.72,"lng":-113.28},{"station":"Banff","region":"AB","dhdbt":-31,"dcdbt":27,"degday":5500,"strange":14,"ohr":7,"dgtemp":5,"janWind":10,"julWind":8,"monthlyTemps":[-9,-7,-3,3,7,11,15,14,9,3,-4,-9],"lat":51.17,"lng":-115.57},{"station":"Barrhead","region":"AB","dhdbt":-33,"dcdbt":27,"degday":5740,"strange":12,"ohr":11,"dgtemp":5,"janWind":8,"julWind":9,"monthlyTemps":[-11,-11,-6,1,11,13,17,13,12,5,-3,-10],"lat":54.13,"lng":-114.4},{"station":"Beaverlodge","region":"AB","dhdbt":-36,"dcdbt":28,"degday":5700,"strange":12,"ohr":9,"dgtemp":5,"janWind":10,"julWind":12,"monthlyTemps":[-13,-10,-4,4,10,13,15,14,10,4,-6,-11],"lat":55.22,"lng":-119.43},{"station":"Brooks","region":"AB","dhdbt":-32,"dcdbt":32,"degday":4880,"strange":14,"ohr":10,"dgtemp":7,"janWind":13,"julWind":12,"monthlyTemps":[-11,-7,-2,6,11,16,19,18,13,6,-2,-7],"lat":50.58,"lng":-111.88},{"station":"Calgary","region":"AB","dhdbt":-30,"dcdbt":28,"degday":5000,"strange":12,"ohr":8,"dgtemp":6,"janWind":15,"julWind":14,"monthlyTemps":[-7,-5,-2,5,10,14,16,16,11,5,-3,-6],"lat":51.05,"lng":-114.08},{"station":"Campsie","region":"AB","dhdbt":-33,"dcdbt":27,"degday":5750,"strange":14,"ohr":11,"dgtemp":5,"janWind":10,"julWind":12,"monthlyTemps":[-14,-11,-4,4,10,14,16,15,10,4,-6,-12],"lat":54.13,"lng":-114.65},{"station":"Camrose","region":"AB","dhdbt":-33,"dcdbt":29,"degday":5500,"strange":13,"ohr":10,"dgtemp":5,"janWind":11,"julWind":12,"monthlyTemps":[-14,-10,-6,4,10,14,17,15,10,3,-5,-10],"lat":53.02,"lng":-112.83},{"station":"Canmore","region":"AB","dhdbt":-31,"dcdbt":28,"degday":5400,"strange":14,"ohr":8,"dgtemp":6,"janWind":10,"julWind":8,"monthlyTemps":[-10,-7,-3,3,7,11,15,14,9,3,-4,-9],"lat":51.09,"lng":-115.35},{"station":"Cardston","region":"AB","dhdbt":-29,"dcdbt":30,"degday":4700,"strange":13,"ohr":9,"dgtemp":7,"janWind":13,"julWind":11,"monthlyTemps":[-5,-3,-1,5,10,14,18,17,12,6,null,-3],"lat":49.2,"lng":-113.3},{"station":"Claresholm","region":"AB","dhdbt":-30,"dcdbt":30,"degday":4680,"strange":15,"ohr":8,"dgtemp":6,"janWind":13,"julWind":12,"monthlyTemps":[-8,-4,-2,5,10,14,18,17,12,6,-1,-5],"lat":50.03,"lng":-113.58},{"station":"Cold Lake","region":"AB","dhdbt":-35,"dcdbt":28,"degday":5860,"strange":11,"ohr":10,"dgtemp":4,"janWind":9,"julWind":11,"monthlyTemps":[-16,-12,-5,4,10,15,17,16,10,3,-7,-13],"lat":54.45,"lng":-110.17},{"station":"Coleman","region":"AB","dhdbt":-31,"dcdbt":29,"degday":5210,"strange":15,"ohr":8,"dgtemp":7,"janWind":14,"julWind":10,"monthlyTemps":[-8,-5,-1,3,8,12,14,14,10,5,-3,-7],"lat":49.63,"lng":-114.5},{"station":"Coronation","region":"AB","dhdbt":-32,"dcdbt":30,"degday":5640,"strange":13,"ohr":9,"dgtemp":5,"janWind":17,"julWind":15,"monthlyTemps":[-14,-12,-5,4,10,14,17,16,10,4,-7,-12],"lat":52.08,"lng":-111.45},{"station":"Cowley","region":"AB","dhdbt":-29,"dcdbt":29,"degday":4810,"strange":15,"ohr":8,"dgtemp":6,"janWind":26,"julWind":18,"monthlyTemps":[-10,-6,-2,3,9,13,16,16,10,5,-2,-6],"lat":49.57,"lng":-114.08},{"station":"Drumheller","region":"AB","dhdbt":-32,"dcdbt":30,"degday":5050,"strange":14,"ohr":8,"dgtemp":5,"janWind":7,"julWind":10,"monthlyTemps":[-13,-8,-3,6,11,16,19,18,13,5,-3,-9],"lat":51.47,"lng":-112.7},{"station":"Edmonton","region":"AB","dhdbt":-30,"dcdbt":28,"degday":5120,"strange":10,"ohr":10,"dgtemp":5,"janWind":11,"julWind":12,"monthlyTemps":[-11,-8,-3,5,11,15,18,17,11,5,-4,-9],"lat":53.55,"lng":-113.47},{"station":"Edson","region":"AB","dhdbt":-34,"dcdbt":27,"degday":5750,"strange":13,"ohr":9,"dgtemp":5,"janWind":7,"julWind":8,"monthlyTemps":[-11,-8,-4,3,8,13,15,14,9,3,-6,-10],"lat":53.58,"lng":-116.43},{"station":"Embarras Portage","region":"AB","dhdbt":-41,"dcdbt":28,"degday":7100,"strange":11,"ohr":10,"dgtemp":3,"janWind":10,"julWind":12,"monthlyTemps":[-22,-17,-9,1,9,14,17,15,9,1,-10,-19],"lat":58.45,"lng":-111.47},{"station":"Fairview","region":"AB","dhdbt":-37,"dcdbt":27,"degday":5840,"strange":11,"ohr":9,"dgtemp":4,"janWind":10,"julWind":10,"monthlyTemps":[-14,-11,-5,4,11,14,16,15,10,4,-7,-12],"lat":56.07,"lng":-118.38},{"station":"Fort MacLeod","region":"AB","dhdbt":-30,"dcdbt":31,"degday":4600,"strange":15,"ohr":9,"dgtemp":8,"janWind":21,"julWind":16,"monthlyTemps":[-7,-4,null,6,11,15,18,17,12,7,-1,-6],"lat":49.72,"lng":-113.42},{"station":"Fort McMurray","region":"AB","dhdbt":-38,"dcdbt":28,"degday":6250,"strange":12,"ohr":10,"dgtemp":4,"janWind":8,"julWind":9,"monthlyTemps":[-18,-13,-6,3,10,15,17,15,10,2,-9,-15],"lat":56.73,"lng":-111.38},{"station":"Fort Saskatchewan","region":"AB","dhdbt":-32,"dcdbt":28,"degday":5420,"strange":13,"ohr":10,"dgtemp":5,"janWind":13,"julWind":12,"monthlyTemps":[-13,-10,-4,5,11,15,17,16,11,5,-6,-12],"lat":53.72,"lng":-113.22},{"station":"Fort Vermilion","region":"AB","dhdbt":-41,"dcdbt":28,"degday":6700,"strange":12,"ohr":9,"dgtemp":4,"janWind":8,"julWind":6,"monthlyTemps":[-22,-17,-10,2,11,15,17,15,9,2,-10,-20],"lat":58.4,"lng":-116},{"station":"Grande Prairie","region":"AB","dhdbt":-36,"dcdbt":27,"degday":5790,"strange":12,"ohr":9,"dgtemp":5,"janWind":9,"julWind":12,"monthlyTemps":[-14,-11,-5,4,10,14,16,15,10,4,-7,-11],"lat":55.17,"lng":-118.8},{"station":"Habay","region":"AB","dhdbt":-41,"dcdbt":28,"degday":6750,"strange":13,"ohr":9,"dgtemp":4,"janWind":8,"julWind":6,"monthlyTemps":[-26,-20,-14,2,11,14,15,14,7,2,-13,-18],"lat":58.83,"lng":-118.73},{"station":"Hardisty","region":"AB","dhdbt":-33,"dcdbt":30,"degday":5640,"strange":13,"ohr":9,"dgtemp":5,"janWind":12,"julWind":13,"monthlyTemps":[-17,-12,-7,3,11,15,16,17,9,5,-6,-13],"lat":52.67,"lng":-111.3},{"station":"High River","region":"AB","dhdbt":-31,"dcdbt":28,"degday":4900,"strange":15,"ohr":8,"dgtemp":6,"janWind":17,"julWind":15,"monthlyTemps":[-8,-6,-2,4,9,13,15,15,10,5,-2,-7],"lat":50.58,"lng":-113.87},{"station":"Hinton","region":"AB","dhdbt":-34,"dcdbt":27,"degday":5500,"strange":15,"ohr":8,"dgtemp":6,"janWind":9,"julWind":8,"monthlyTemps":[-12,-8,-4,3,8,11,14,13,9,4,-6,-8],"lat":53.4,"lng":-117.58},{"station":"Jasper","region":"AB","dhdbt":-31,"dcdbt":28,"degday":5300,"strange":12,"ohr":8,"dgtemp":6,"janWind":9,"julWind":8,"monthlyTemps":[-8,-5,-1,4,9,13,15,14,10,4,-4,-9],"lat":52.88,"lng":-118.08},{"station":"Keg River","region":"AB","dhdbt":-40,"dcdbt":28,"degday":6520,"strange":15,"ohr":9,"dgtemp":4,"janWind":9,"julWind":10,"monthlyTemps":[-19,-14,-7,3,9,14,15,14,9,1,-12,-16],"lat":57.75,"lng":-117.62},{"station":"Lac la Biche","region":"AB","dhdbt":-35,"dcdbt":28,"degday":6100,"strange":12,"ohr":10,"dgtemp":4,"janWind":7,"julWind":9,"monthlyTemps":[-16,-11,-6,3,10,14,17,16,11,4,-6,-13],"lat":54.77,"lng":-111.97},{"station":"Lacombe","region":"AB","dhdbt":-33,"dcdbt":28,"degday":5500,"strange":13,"ohr":10,"dgtemp":5,"janWind":10,"julWind":11,"monthlyTemps":[-13,-9,-5,4,9,13,16,15,10,4,-5,-9],"lat":52.47,"lng":-113.73},{"station":"Lethbridge","region":"AB","dhdbt":-30,"dcdbt":31,"degday":4500,"strange":14,"ohr":9,"dgtemp":8,"janWind":20,"julWind":15,"monthlyTemps":[-6,-4,null,6,11,15,18,18,13,7,-1,-5],"lat":49.7,"lng":-112.82},{"station":"Manning","region":"AB","dhdbt":-39,"dcdbt":27,"degday":6300,"strange":11,"ohr":9,"dgtemp":4,"janWind":10,"julWind":11,"monthlyTemps":[-18,-13,-7,3,10,14,16,15,10,2,-9,-14],"lat":56.92,"lng":-117.62},{"station":"Medicine Hat","region":"AB","dhdbt":-31,"dcdbt":32,"degday":4540,"strange":13,"ohr":8,"dgtemp":8,"janWind":14,"julWind":13,"monthlyTemps":[-9,-5,null,7,12,17,20,19,13,7,-2,-7],"lat":50.05,"lng":-110.67},{"station":"Peace River","region":"AB","dhdbt":-37,"dcdbt":27,"degday":6050,"strange":12,"ohr":9,"dgtemp":4,"janWind":12,"julWind":12,"monthlyTemps":[-15,-12,-6,4,10,14,16,15,10,3,-8,-12],"lat":56.23,"lng":-117.28},{"station":"Pincher Creek","region":"AB","dhdbt":-29,"dcdbt":29,"degday":4740,"strange":13,"ohr":8,"dgtemp":6,"janWind":26,"julWind":18,"monthlyTemps":[-6,-3,-2,4,9,13,17,17,12,6,-1,-4],"lat":49.48,"lng":-113.95},{"station":"Ranfurly","region":"AB","dhdbt":-34,"dcdbt":29,"degday":5700,"strange":12,"ohr":10,"dgtemp":5,"janWind":12,"julWind":12,"monthlyTemps":[-14,-12,-6,4,11,15,17,16,10,5,-6,-13],"lat":53.42,"lng":-111.68},{"station":"Red Deer","region":"AB","dhdbt":-32,"dcdbt":28,"degday":5550,"strange":13,"ohr":10,"dgtemp":5,"janWind":12,"julWind":12,"monthlyTemps":[-12,-9,-4,4,10,14,16,15,10,4,-5,-10],"lat":52.27,"lng":-113.8},{"station":"Rocky Mountain House","region":"AB","dhdbt":-32,"dcdbt":27,"degday":5640,"strange":13,"ohr":9,"dgtemp":5,"janWind":7,"julWind":8,"monthlyTemps":[-12,-9,-5,3,8,12,15,14,9,3,-6,-10],"lat":52.37,"lng":-114.92},{"station":"Slave Lake","region":"AB","dhdbt":-35,"dcdbt":26,"degday":5850,"strange":11,"ohr":11,"dgtemp":4,"janWind":15,"julWind":12,"monthlyTemps":[-13,-10,-5,3,9,14,16,15,10,3,-6,-12],"lat":55.28,"lng":-114.77},{"station":"Stettler","region":"AB","dhdbt":-32,"dcdbt":30,"degday":5300,"strange":14,"ohr":9,"dgtemp":5,"janWind":16,"julWind":13,"monthlyTemps":[-13,-9,-3,5,10,14,16,16,11,5,-5,-11],"lat":52.32,"lng":-112.72},{"station":"Stony Plain","region":"AB","dhdbt":-32,"dcdbt":28,"degday":5300,"strange":11,"ohr":10,"dgtemp":5,"janWind":11,"julWind":10,"monthlyTemps":[-12,-8,-3,5,11,15,16,16,11,5,-4,-10],"lat":53.53,"lng":-114},{"station":"Suffield","region":"AB","dhdbt":-31,"dcdbt":32,"degday":4770,"strange":15,"ohr":10,"dgtemp":8,"janWind":18,"julWind":18,"monthlyTemps":[-11,-7,-1,6,12,16,19,19,13,7,-3,-9],"lat":50.2,"lng":-111.17},{"station":"Taber","region":"AB","dhdbt":-31,"dcdbt":31,"degday":4580,"strange":15,"ohr":9,"dgtemp":8,"janWind":19,"julWind":13,"monthlyTemps":[-9,-4,-1,6,12,16,19,18,13,7,-1,-6],"lat":49.78,"lng":-112.15},{"station":"Turner Valley","region":"AB","dhdbt":-31,"dcdbt":28,"degday":5220,"strange":15,"ohr":8,"dgtemp":5,"janWind":17,"julWind":15,"monthlyTemps":[-10,-7,-3,2,7,11,13,13,9,4,-3,-9],"lat":50.67,"lng":-114.28},{"station":"Valleyview","region":"AB","dhdbt":-37,"dcdbt":27,"degday":5600,"strange":13,"ohr":9,"dgtemp":4,"janWind":15,"julWind":13,"monthlyTemps":[-13,-9,-2,5,10,14,16,15,10,5,-4,-11],"lat":55.07,"lng":-117.28},{"station":"Vegreville","region":"AB","dhdbt":-34,"dcdbt":29,"degday":5780,"strange":13,"ohr":10,"dgtemp":5,"janWind":12,"julWind":13,"monthlyTemps":[-15,-11,-6,4,10,14,17,15,10,3,-6,-11],"lat":53.5,"lng":-112.05},{"station":"Vermilion","region":"AB","dhdbt":-35,"dcdbt":29,"degday":5740,"strange":13,"ohr":10,"dgtemp":5,"janWind":12,"julWind":12,"monthlyTemps":[-18,-14,-7,4,11,15,16,15,10,4,-5,-14],"lat":53.37,"lng":-110.85},{"station":"Wagner","region":"AB","dhdbt":-35,"dcdbt":26,"degday":5850,"strange":12,"ohr":11,"dgtemp":4,"janWind":15,"julWind":12,"monthlyTemps":[-13,-10,-5,3,9,14,16,15,10,3,-6,-12],"lat":55.35,"lng":-114.98},{"station":"Wainwright","region":"AB","dhdbt":-33,"dcdbt":29,"degday":5700,"strange":12,"ohr":10,"dgtemp":5,"janWind":12,"julWind":13,"monthlyTemps":[-14,-9,-6,5,10,15,18,17,11,4,-4,-11],"lat":52.82,"lng":-110.87},{"station":"Wetaskiwin","region":"AB","dhdbt":-33,"dcdbt":29,"degday":5500,"strange":13,"ohr":10,"dgtemp":5,"janWind":10,"julWind":11,"monthlyTemps":[-15,-11,-6,3,11,15,16,16,9,5,-6,-12],"lat":52.97,"lng":-113.37},{"station":"Whitecourt","region":"AB","dhdbt":-33,"dcdbt":27,"degday":5650,"strange":12,"ohr":11,"dgtemp":5,"janWind":7,"julWind":8,"monthlyTemps":[-12,-8,-3,4,10,14,16,14,9,4,-7,-11],"lat":54.15,"lng":-115.68},{"station":"Wimborne","region":"AB","dhdbt":-31,"dcdbt":29,"degday":5310,"strange":13,"ohr":8,"dgtemp":5,"janWind":15,"julWind":14,"monthlyTemps":[-13,-9,-6,2,10,14,16,15,10,4,-5,-9],"lat":51.87,"lng":-113.58},{"station":"100 Mile House","region":"BC","dhdbt":-30,"dcdbt":29,"degday":5030,"strange":15,"ohr":7,"dgtemp":8,"janWind":10,"julWind":8,"monthlyTemps":[-8,-4,null,5,9,13,15,15,10,5,-2,-8],"lat":51.65,"lng":-121.2833},{"station":"Abbotsford","region":"BC","dhdbt":-8,"dcdbt":29,"degday":2860,"strange":11,"ohr":11,"dgtemp":11,"janWind":10,"julWind":8,"monthlyTemps":[4,5,7,10,13,16,18,18,15,11,6,3],"lat":49.0517,"lng":-122.3289},{"station":"Agassiz","region":"BC","dhdbt":-9,"dcdbt":31,"degday":2750,"strange":10,"ohr":12,"dgtemp":11,"janWind":13,"julWind":12,"monthlyTemps":[3,5,7,11,14,16,19,19,16,11,6,4],"lat":49.23,"lng":-121.77},{"station":"Alberni","region":"BC","dhdbt":-5,"dcdbt":31,"degday":3100,"strange":13,"ohr":9,"dgtemp":10,"janWind":4,"julWind":9,"monthlyTemps":[2,3,6,9,12,15,18,18,15,10,5,2],"lat":49.27,"lng":-124.8},{"station":"Ashcroft","region":"BC","dhdbt":-24,"dcdbt":34,"degday":3700,"strange":14,"ohr":9,"dgtemp":10,"janWind":5,"julWind":10,"monthlyTemps":[-7,-2,4,10,14,18,21,20,16,9,null,-3],"lat":50.72,"lng":-121.28},{"station":"Bamfield","region":"BC","dhdbt":-2,"dcdbt":23,"degday":3080,"strange":8,"ohr":10,"dgtemp":11,"janWind":14,"julWind":10,"monthlyTemps":[5,6,6,8,11,13,14,15,14,10,7,5],"lat":48.83,"lng":-125.13},{"station":"Beatton River","region":"BC","dhdbt":-37,"dcdbt":26,"degday":6300,"strange":13,"ohr":10,"dgtemp":4,"janWind":4,"julWind":6,"monthlyTemps":[-15,-10,-8,1,7,12,14,12,7,1,-8,-12],"lat":57.38,"lng":-121.4},{"station":"Bella Bella","region":"BC","dhdbt":-5,"dcdbt":23,"degday":3180,"strange":8,"ohr":11,"dgtemp":10,"janWind":15,"julWind":9,"monthlyTemps":[3,4,4,6,10,12,14,15,13,9,5,1],"lat":52.16,"lng":-128.14},{"station":"Bella Coola","region":"BC","dhdbt":-14,"dcdbt":27,"degday":3560,"strange":11,"ohr":11,"dgtemp":10,"janWind":8,"julWind":11,"monthlyTemps":[-1,1,5,8,12,14,17,17,13,8,3,-1],"lat":52.37,"lng":-126.75},{"station":"Burnaby (Simon Fraser Univ.)","region":"BC","dhdbt":-7,"dcdbt":25,"degday":3100,"strange":7,"ohr":9,"dgtemp":11,"janWind":12,"julWind":11,"monthlyTemps":[3,4,6,9,12,14,17,17,15,10,5,3],"lat":49.28,"lng":-122.92},{"station":"Burns Lake","region":"BC","dhdbt":-31,"dcdbt":26,"degday":5450,"strange":16,"ohr":8,"dgtemp":6,"janWind":5,"julWind":6,"monthlyTemps":[-11,-7,-3,3,8,12,13,12,8,3,-4,-9],"lat":54.23,"lng":-125.75},{"station":"Cache Creek","region":"BC","dhdbt":-24,"dcdbt":34,"degday":3700,"strange":16,"ohr":9,"dgtemp":10,"janWind":5,"julWind":10,"monthlyTemps":[-5,-1,4,9,13,17,20,19,15,8,null,-4],"lat":50.8,"lng":-121.32},{"station":"Campbell River","region":"BC","dhdbt":-5,"dcdbt":26,"degday":3000,"strange":9,"ohr":10,"dgtemp":10,"janWind":9,"julWind":9,"monthlyTemps":[4,5,6,9,12,15,17,17,14,10,6,4],"lat":50.02,"lng":-125.24},{"station":"Carmi","region":"BC","dhdbt":-24,"dcdbt":31,"degday":4750,"strange":19,"ohr":9,"dgtemp":10,"janWind":5,"julWind":6,"monthlyTemps":[-7,-3,1,6,10,13,16,15,11,5,-2,-7],"lat":49.5,"lng":-119.12},{"station":"Castlegar","region":"BC","dhdbt":-18,"dcdbt":32,"degday":3580,"strange":15,"ohr":10,"dgtemp":10,"janWind":9,"julWind":8,"monthlyTemps":[-3,null,4,9,13,17,20,20,14,8,2,-2],"lat":49.32,"lng":-117.67},{"station":"Chetwynd","region":"BC","dhdbt":-35,"dcdbt":27,"degday":5500,"strange":14,"ohr":9,"dgtemp":5,"janWind":9,"julWind":8,"monthlyTemps":[-11,-8,-2,5,10,13,15,15,10,4,-6,-9],"lat":55.7,"lng":-121.63},{"station":"Chilliwack","region":"BC","dhdbt":-9,"dcdbt":30,"degday":2780,"strange":11,"ohr":11,"dgtemp":11,"janWind":13,"julWind":12,"monthlyTemps":[2,5,7,10,13,16,18,18,16,11,6,3],"lat":49.1667,"lng":-121.95},{"station":"Cloverdale","region":"BC","dhdbt":-8,"dcdbt":29,"degday":2700,"strange":10,"ohr":11,"dgtemp":11,"janWind":9,"julWind":7,"monthlyTemps":[4,5,8,11,14,16,18,19,16,11,6,3],"lat":49.1,"lng":-122.7333},{"station":"Comox","region":"BC","dhdbt":-7,"dcdbt":27,"degday":3100,"strange":8,"ohr":9,"dgtemp":10,"janWind":13,"julWind":12,"monthlyTemps":[4,4,6,9,12,15,18,18,14,10,6,4],"lat":49.68,"lng":-124.93},{"station":"Courtenay","region":"BC","dhdbt":-7,"dcdbt":28,"degday":3100,"strange":8,"ohr":9,"dgtemp":10,"janWind":13,"julWind":12,"monthlyTemps":[4,4,6,9,12,15,18,18,14,10,6,4],"lat":49.68,"lng":-124.98},{"station":"Cranbrook","region":"BC","dhdbt":-26,"dcdbt":32,"degday":4400,"strange":13,"ohr":7,"dgtemp":9,"janWind":6,"julWind":11,"monthlyTemps":[-6,-3,2,7,11,15,19,18,13,6,-1,-7],"lat":49.5,"lng":-115.77},{"station":"Crescent Valley","region":"BC","dhdbt":-18,"dcdbt":31,"degday":3650,"strange":17,"ohr":10,"dgtemp":10,"janWind":9,"julWind":8,"monthlyTemps":[-4,-1,4,8,13,16,19,19,14,8,1,-3],"lat":49.45,"lng":-117.55},{"station":"Crofton","region":"BC","dhdbt":-4,"dcdbt":28,"degday":2880,"strange":13,"ohr":10,"dgtemp":11,"janWind":8,"julWind":10,"monthlyTemps":[2,4,5,8,12,14,18,18,15,10,6,4],"lat":48.87,"lng":-123.65},{"station":"Dawson Creek","region":"BC","dhdbt":-38,"dcdbt":27,"degday":5900,"strange":13,"ohr":9,"dgtemp":5,"janWind":10,"julWind":10,"monthlyTemps":[-15,-11,-5,4,9,13,15,14,10,4,-7,-12],"lat":55.77,"lng":-120.23},{"station":"Dease Lake","region":"BC","dhdbt":-37,"dcdbt":24,"degday":6730,"strange":11,"ohr":7,"dgtemp":4,"janWind":7,"julWind":7,"monthlyTemps":[-14,-12,-5,1,7,11,13,11,7,null,-10,-14],"lat":58.44,"lng":-130},{"station":"Dog Creek","region":"BC","dhdbt":-28,"dcdbt":29,"degday":4800,"strange":16,"ohr":7,"dgtemp":6,"janWind":10,"julWind":8,"monthlyTemps":[-9,-4,null,7,10,14,17,16,14,6,-3,-5],"lat":51.58,"lng":-122.3},{"station":"Duncan","region":"BC","dhdbt":-6,"dcdbt":28,"degday":2980,"strange":14,"ohr":10,"dgtemp":10,"janWind":4,"julWind":9,"monthlyTemps":[3,4,6,8,12,15,17,17,14,9,5,3],"lat":48.78,"lng":-123.7},{"station":"Elko","region":"BC","dhdbt":-28,"dcdbt":30,"degday":4600,"strange":14,"ohr":9,"dgtemp":9,"janWind":10,"julWind":8,"monthlyTemps":[-7,-3,1,6,11,15,18,18,13,6,-1,-6],"lat":49.3,"lng":-115.12},{"station":"Fernie","region":"BC","dhdbt":-27,"dcdbt":30,"degday":4750,"strange":15,"ohr":9,"dgtemp":8,"janWind":10,"julWind":8,"monthlyTemps":[-7,-4,null,5,10,13,16,16,11,5,-1,-6],"lat":49.5,"lng":-115.07},{"station":"Fort Nelson","region":"BC","dhdbt":-39,"dcdbt":28,"degday":6710,"strange":12,"ohr":9,"dgtemp":4,"janWind":4,"julWind":7,"monthlyTemps":[-21,-15,-8,3,10,15,17,15,9,null,-13,-18],"lat":58.83,"lng":-122.7},{"station":"Fort St. John","region":"BC","dhdbt":-35,"dcdbt":26,"degday":5750,"strange":10,"ohr":10,"dgtemp":5,"janWind":14,"julWind":12,"monthlyTemps":[-13,-9,-5,4,10,14,16,15,10,3,-7,-10],"lat":56.25,"lng":-120.85},{"station":"Glacier","region":"BC","dhdbt":-27,"dcdbt":27,"degday":5800,"strange":12,"ohr":8,"dgtemp":8,"janWind":10,"julWind":8,"monthlyTemps":[-10,-7,-2,2,6,10,13,13,8,2,-5,-9],"lat":51.27,"lng":-117.52},{"station":"Gold River","region":"BC","dhdbt":-8,"dcdbt":31,"degday":3230,"strange":13,"ohr":8,"dgtemp":11,"janWind":4,"julWind":9,"monthlyTemps":[1,3,5,8,12,15,18,18,15,9,4,2],"lat":49.78,"lng":-126.05},{"station":"Golden","region":"BC","dhdbt":-27,"dcdbt":30,"degday":4750,"strange":14,"ohr":7,"dgtemp":8,"janWind":3,"julWind":5,"monthlyTemps":[-10,-5,null,6,11,15,17,17,11,5,-2,-8],"lat":51.3,"lng":-116.97},{"station":"Grand Forks","region":"BC","dhdbt":-19,"dcdbt":34,"degday":3820,"strange":16,"ohr":9,"dgtemp":10,"janWind":9,"julWind":8,"monthlyTemps":[-5,-1,4,9,13,16,20,19,14,7,1,-4],"lat":49.03,"lng":-118.45},{"station":"Greenwood","region":"BC","dhdbt":-20,"dcdbt":34,"degday":4100,"strange":17,"ohr":9,"dgtemp":10,"janWind":9,"julWind":8,"monthlyTemps":[-8,-3,1,6,10,14,18,17,11,6,null,-5],"lat":49.1,"lng":-118.68},{"station":"Haney","region":"BC","dhdbt":-9,"dcdbt":30,"degday":2840,"strange":12,"ohr":11,"dgtemp":11,"janWind":9,"julWind":7,"monthlyTemps":[2,4,7,9,12,15,18,18,15,10,5,3],"lat":49.22,"lng":-122.6},{"station":"Hope","region":"BC","dhdbt":-13,"dcdbt":31,"degday":3000,"strange":10,"ohr":10,"dgtemp":11,"janWind":15,"julWind":13,"monthlyTemps":[2,4,7,10,13,16,19,19,16,10,5,2],"lat":49.38,"lng":-121.44},{"station":"Jordan River","region":"BC","dhdbt":-1,"dcdbt":22,"degday":2900,"strange":7,"ohr":10,"dgtemp":12,"janWind":14,"julWind":10,"monthlyTemps":[6,7,8,10,12,13,15,15,14,11,8,6],"lat":48.42,"lng":-124.05},{"station":"Kamloops","region":"BC","dhdbt":-23,"dcdbt":34,"degday":3450,"strange":13,"ohr":9,"dgtemp":10,"janWind":10,"julWind":10,"monthlyTemps":[-3,null,5,10,15,18,21,21,15,8,2,-2],"lat":50.67,"lng":-120.32},{"station":"Kaslo","region":"BC","dhdbt":-17,"dcdbt":30,"degday":3830,"strange":13,"ohr":9,"dgtemp":9,"janWind":10,"julWind":8,"monthlyTemps":[-3,-1,3,7,12,15,18,18,13,7,2,-2],"lat":49.92,"lng":-116.92},{"station":"Kelowna","region":"BC","dhdbt":-17,"dcdbt":33,"degday":3400,"strange":15,"ohr":9,"dgtemp":11,"janWind":5,"julWind":6,"monthlyTemps":[-3,-1,4,8,13,17,19,19,14,7,1,-3],"lat":49.88,"lng":-119.48},{"station":"Kimberley","region":"BC","dhdbt":-25,"dcdbt":31,"degday":4650,"strange":16,"ohr":8,"dgtemp":8,"janWind":6,"julWind":11,"monthlyTemps":[-7,-4,1,6,11,14,18,17,13,6,-2,-7],"lat":49.68,"lng":-115.98},{"station":"Kitimat Plant","region":"BC","dhdbt":-16,"dcdbt":25,"degday":3750,"strange":10,"ohr":8,"dgtemp":7,"janWind":5,"julWind":7,"monthlyTemps":[-2,null,4,7,11,14,17,17,13,8,2,-1],"lat":54.05,"lng":-128.63},{"station":"Kitimat Townsite","region":"BC","dhdbt":-16,"dcdbt":24,"degday":3900,"strange":10,"ohr":8,"dgtemp":9,"janWind":5,"julWind":7,"monthlyTemps":[-3,-1,3,6,10,14,16,16,12,7,2,-1],"lat":54.07,"lng":-128.65},{"station":"Ladner","region":"BC","dhdbt":-6,"dcdbt":27,"degday":2600,"strange":7,"ohr":11,"dgtemp":12,"janWind":11,"julWind":11,"monthlyTemps":[4,5,7,10,13,16,18,18,15,10,6,4],"lat":49.08,"lng":-123.08},{"station":"Ladysmith","region":"BC","dhdbt":-7,"dcdbt":27,"degday":3000,"strange":12,"ohr":11,"dgtemp":11,"janWind":8,"julWind":10,"monthlyTemps":[3,4,6,9,12,15,18,18,15,10,5,3],"lat":48.99,"lng":-123.82},{"station":"Langford","region":"BC","dhdbt":-4,"dcdbt":27,"degday":2750,"strange":10,"ohr":11,"dgtemp":12,"janWind":10,"julWind":8,"monthlyTemps":[6,6,8,10,12,15,16,16,15,11,8,6],"lat":48.45,"lng":-123.5},{"station":"Langley","region":"BC","dhdbt":-8,"dcdbt":29,"degday":2700,"strange":11,"ohr":11,"dgtemp":11,"janWind":9,"julWind":7,"monthlyTemps":[4,5,8,11,14,16,18,19,16,11,6,3],"lat":49.1,"lng":-122.65},{"station":"Lillooet","region":"BC","dhdbt":-21,"dcdbt":34,"degday":3400,"strange":13,"ohr":9,"dgtemp":11,"janWind":14,"julWind":23,"monthlyTemps":[-2,1,5,10,15,19,23,22,17,10,3,-1],"lat":50.68,"lng":-121.93},{"station":"Lytton","region":"BC","dhdbt":-17,"dcdbt":35,"degday":3300,"strange":12,"ohr":9,"dgtemp":11,"janWind":14,"julWind":23,"monthlyTemps":[-1,2,6,10,15,18,22,22,17,10,3,-2],"lat":50.23,"lng":-121.57},{"station":"Mackenzie","region":"BC","dhdbt":-34,"dcdbt":27,"degday":5550,"strange":12,"ohr":8,"dgtemp":5,"janWind":7,"julWind":7,"monthlyTemps":[-11,-7,-4,3,9,14,15,14,10,3,-4,-8],"lat":55.3,"lng":-123.08},{"station":"Masset","region":"BC","dhdbt":-5,"dcdbt":17,"degday":3700,"strange":7,"ohr":10,"dgtemp":10,"janWind":14,"julWind":15,"monthlyTemps":[1,3,4,6,8,10,13,13,12,9,5,3],"lat":54.02,"lng":-132.1},{"station":"McBride","region":"BC","dhdbt":-29,"dcdbt":29,"degday":4980,"strange":14,"ohr":8,"dgtemp":8,"janWind":8,"julWind":6,"monthlyTemps":[-7,-4,null,5,9,13,15,15,10,5,-2,-6],"lat":53.3,"lng":-120.17},{"station":"McLeod Lake","region":"BC","dhdbt":-35,"dcdbt":27,"degday":5450,"strange":12,"ohr":8,"dgtemp":5,"janWind":7,"julWind":7,"monthlyTemps":[-11,-7,-4,3,9,14,15,14,10,3,-4,-8],"lat":54.98,"lng":-123.03},{"station":"Merritt","region":"BC","dhdbt":-24,"dcdbt":34,"degday":3900,"strange":15,"ohr":9,"dgtemp":11,"janWind":10,"julWind":10,"monthlyTemps":[-4,-1,4,8,12,15,18,18,14,8,1,-4],"lat":50.1,"lng":-120.7833},{"station":"Mission City","region":"BC","dhdbt":-9,"dcdbt":30,"degday":2850,"strange":10,"ohr":11,"dgtemp":11,"janWind":10,"julWind":8,"monthlyTemps":[2,5,7,10,13,15,18,18,16,11,6,3],"lat":49.13,"lng":-122.3},{"station":"Montrose","region":"BC","dhdbt":-16,"dcdbt":32,"degday":3600,"strange":17,"ohr":10,"dgtemp":10,"janWind":8,"julWind":8,"monthlyTemps":[-4,-1,3,8,13,17,20,20,14,7,2,-3],"lat":49.08,"lng":-117.58},{"station":"Nakusp","region":"BC","dhdbt":-20,"dcdbt":31,"degday":3560,"strange":12,"ohr":10,"dgtemp":9,"janWind":5,"julWind":5,"monthlyTemps":[-2,null,3,8,12,16,20,19,14,8,2,-1],"lat":50.23,"lng":-117.8},{"station":"Nanaimo","region":"BC","dhdbt":-6,"dcdbt":27,"degday":3000,"strange":9,"ohr":11,"dgtemp":11,"janWind":8,"julWind":10,"monthlyTemps":[2,4,5,8,12,14,18,18,15,10,6,4],"lat":49.17,"lng":-123.93},{"station":"Nelson","region":"BC","dhdbt":-18,"dcdbt":31,"degday":3500,"strange":13,"ohr":10,"dgtemp":10,"janWind":10,"julWind":8,"monthlyTemps":[-1,1,4,8,12,16,20,20,15,8,3,-1],"lat":49.48,"lng":-117.28},{"station":"New Westminster","region":"BC","dhdbt":-8,"dcdbt":29,"degday":2800,"strange":10,"ohr":10,"dgtemp":11,"janWind":9,"julWind":7,"monthlyTemps":[2,5,6,9,12,15,18,18,15,11,6,4],"lat":49.22,"lng":-122.92},{"station":"North Vancouver","region":"BC","dhdbt":-7,"dcdbt":26,"degday":2910,"strange":10,"ohr":11,"dgtemp":11,"janWind":7,"julWind":8,"monthlyTemps":[4,5,7,10,13,15,18,18,15,10,6,3],"lat":49.32,"lng":-123.07},{"station":"Ocean Falls","region":"BC","dhdbt":-10,"dcdbt":23,"degday":3400,"strange":7,"ohr":10,"dgtemp":8,"janWind":18,"julWind":13,"monthlyTemps":[1,2,4,6,10,13,15,16,14,9,4,2],"lat":52.35,"lng":-127.7},{"station":"Osoyoos","region":"BC","dhdbt":-14,"dcdbt":35,"degday":3100,"strange":15,"ohr":10,"dgtemp":12,"janWind":7,"julWind":6,"monthlyTemps":[-1,2,6,11,15,19,23,22,17,10,3,-1],"lat":49.03,"lng":-119.5},{"station":"Parksville","region":"BC","dhdbt":-6,"dcdbt":26,"degday":3200,"strange":9,"ohr":11,"dgtemp":12,"janWind":8,"julWind":10,"monthlyTemps":[4,5,6,9,12,15,18,18,14,10,6,3],"lat":49.32,"lng":-124.33},{"station":"Penticton","region":"BC","dhdbt":-15,"dcdbt":33,"degday":3350,"strange":13,"ohr":9,"dgtemp":11,"janWind":14,"julWind":9,"monthlyTemps":[-1,1,5,9,14,18,21,20,15,9,3,-1],"lat":49.5,"lng":-119.58},{"station":"Port Alberni","region":"BC","dhdbt":-5,"dcdbt":31,"degday":3100,"strange":13,"ohr":9,"dgtemp":10,"janWind":4,"julWind":9,"monthlyTemps":[2,3,6,9,12,15,18,18,15,10,5,2],"lat":49.2333,"lng":-124.8},{"station":"Port Alice","region":"BC","dhdbt":-3,"dcdbt":26,"degday":3010,"strange":9,"ohr":8,"dgtemp":11,"janWind":4,"julWind":9,"monthlyTemps":[4,5,6,8,11,13,16,16,14,10,6,4],"lat":50.38,"lng":-127.45},{"station":"Port Hardy","region":"BC","dhdbt":-5,"dcdbt":20,"degday":3440,"strange":7,"ohr":10,"dgtemp":10,"janWind":15,"julWind":9,"monthlyTemps":[4,4,6,7,10,12,14,14,12,9,6,4],"lat":50.7,"lng":-127.42},{"station":"Port McNeill","region":"BC","dhdbt":-5,"dcdbt":22,"degday":3410,"strange":8,"ohr":10,"dgtemp":10,"janWind":15,"julWind":9,"monthlyTemps":[4,4,5,8,10,12,14,14,13,10,6,4],"lat":50.58,"lng":-127.1},{"station":"Port Renfrew","region":"BC","dhdbt":-3,"dcdbt":24,"degday":2900,"strange":9,"ohr":9,"dgtemp":11,"janWind":14,"julWind":10,"monthlyTemps":[3,5,6,8,11,13,15,15,13,10,6,4],"lat":48.56,"lng":-124.4},{"station":"Powell River","region":"BC","dhdbt":-7,"dcdbt":26,"degday":3100,"strange":8,"ohr":10,"dgtemp":11,"janWind":7,"julWind":7,"monthlyTemps":[4,5,7,9,13,16,18,18,16,11,7,4],"lat":49.83,"lng":-124.52},{"station":"Prince George","region":"BC","dhdbt":-32,"dcdbt":28,"degday":4720,"strange":12,"ohr":9,"dgtemp":6,"janWind":10,"julWind":8,"monthlyTemps":[-8,-5,null,5,10,14,16,15,10,4,-3,-7],"lat":53.92,"lng":-122.75},{"station":"Prince Rupert","region":"BC","dhdbt":-13,"dcdbt":19,"degday":3900,"strange":6,"ohr":9,"dgtemp":10,"janWind":14,"julWind":10,"monthlyTemps":[2,3,4,6,9,12,13,14,12,8,4,3],"lat":54.32,"lng":-130.32},{"station":"Princeton","region":"BC","dhdbt":-24,"dcdbt":33,"degday":4250,"strange":16,"ohr":8,"dgtemp":10,"janWind":2,"julWind":7,"monthlyTemps":[-5,-3,2,7,11,15,19,18,14,6,-1,-5],"lat":49.5,"lng":-120.51},{"station":"Qualicum Beach","region":"BC","dhdbt":-7,"dcdbt":27,"degday":3200,"strange":10,"ohr":11,"dgtemp":10,"janWind":8,"julWind":10,"monthlyTemps":[3,4,6,8,12,15,17,17,13,9,5,3],"lat":49.35,"lng":-124.45},{"station":"Queen Charlotte City","region":"BC","dhdbt":-6,"dcdbt":21,"degday":3520,"strange":5,"ohr":9,"dgtemp":10,"janWind":17,"julWind":11,"monthlyTemps":[4,4,5,7,9,12,14,15,13,9,6,4],"lat":53.26,"lng":-132.08},{"station":"Quesnel","region":"BC","dhdbt":-31,"dcdbt":30,"degday":4650,"strange":14,"ohr":7,"dgtemp":6,"janWind":6,"julWind":5,"monthlyTemps":[-7,-4,1,6,11,15,17,16,11,6,-2,-6],"lat":52.98,"lng":-122.48},{"station":"Revelstoke","region":"BC","dhdbt":-20,"dcdbt":31,"degday":4000,"strange":12,"ohr":9,"dgtemp":9,"janWind":5,"julWind":5,"monthlyTemps":[-4,-2,2,8,13,16,19,18,13,7,1,-3],"lat":50.98,"lng":-118.2},{"station":"Richmond","region":"BC","dhdbt":-7,"dcdbt":27,"degday":2800,"strange":7,"ohr":11,"dgtemp":11,"janWind":11,"julWind":11,"monthlyTemps":[4,5,7,10,13,16,18,18,15,10,6,4],"lat":49.17,"lng":-123.1},{"station":"Salmon Arm","region":"BC","dhdbt":-19,"dcdbt":33,"degday":3650,"strange":14,"ohr":11,"dgtemp":10,"janWind":4,"julWind":5,"monthlyTemps":[-2,null,4,9,13,17,21,20,14,8,2,-2],"lat":50.7,"lng":-119.28},{"station":"Sandspit","region":"BC","dhdbt":-4,"dcdbt":18,"degday":3450,"strange":5,"ohr":9,"dgtemp":11,"janWind":22,"julWind":16,"monthlyTemps":[4,4,5,7,9,12,14,15,13,9,6,4],"lat":53.25,"lng":-131.82},{"station":"Sechelt","region":"BC","dhdbt":-6,"dcdbt":27,"degday":2680,"strange":9,"ohr":12,"dgtemp":12,"janWind":8,"julWind":10,"monthlyTemps":[4,5,6,9,12,14,17,17,14,10,6,5],"lat":49.47,"lng":-123.75},{"station":"Sidney","region":"BC","dhdbt":-4,"dcdbt":26,"degday":2850,"strange":10,"ohr":10,"dgtemp":12,"janWind":10,"julWind":8,"monthlyTemps":[5,5,7,9,12,15,17,17,14,10,6,4],"lat":48.65,"lng":-123.4},{"station":"Smith River","region":"BC","dhdbt":-45,"dcdbt":26,"degday":7100,"strange":11,"ohr":8,"dgtemp":4,"janWind":5,"julWind":10,"monthlyTemps":[-25,-16,-10,null,7,13,14,13,7,-1,-13,-21],"lat":59.88,"lng":-126.43},{"station":"Smithers","region":"BC","dhdbt":-29,"dcdbt":26,"degday":5040,"strange":12,"ohr":8,"dgtemp":6,"janWind":7,"julWind":6,"monthlyTemps":[-8,-4,null,5,9,13,15,14,10,4,-2,-7],"lat":54.7833,"lng":-127.1667},{"station":"Sooke","region":"BC","dhdbt":-1,"dcdbt":21,"degday":2900,"strange":6,"ohr":9,"dgtemp":11,"janWind":11,"julWind":12,"monthlyTemps":[5,5,7,8,10,12,14,14,13,9,6,4],"lat":48.38,"lng":-123.72},{"station":"Squamish","region":"BC","dhdbt":-9,"dcdbt":29,"degday":2950,"strange":11,"ohr":11,"dgtemp":11,"janWind":5,"julWind":6,"monthlyTemps":[2,4,6,9,12,15,18,18,15,9,4,2],"lat":49.7,"lng":-123.15},{"station":"Stewart","region":"BC","dhdbt":-17,"dcdbt":25,"degday":4350,"strange":9,"ohr":8,"dgtemp":8,"janWind":3,"julWind":4,"monthlyTemps":[-4,-1,2,6,10,14,15,14,11,6,1,-3],"lat":55.93,"lng":-129.98},{"station":"Surrey (88 Ave & 156 St.)","region":"BC","dhdbt":-8,"dcdbt":29,"degday":2750,"strange":11,"ohr":11,"dgtemp":12,"janWind":9,"julWind":7,"monthlyTemps":[4,5,8,11,14,16,18,19,16,11,6,3],"lat":49.1628,"lng":-122.7902},{"station":"Tahsis","region":"BC","dhdbt":-4,"dcdbt":26,"degday":3150,"strange":12,"ohr":10,"dgtemp":11,"janWind":4,"julWind":9,"monthlyTemps":[2,4,6,8,12,15,18,19,15,10,5,2],"lat":49.93,"lng":-126.65},{"station":"Taylor","region":"BC","dhdbt":-35,"dcdbt":26,"degday":5720,"strange":13,"ohr":10,"dgtemp":5,"janWind":14,"julWind":12,"monthlyTemps":[-13,-9,-5,4,10,14,16,15,10,3,-7,-10],"lat":56.2,"lng":-120.69},{"station":"Terrace","region":"BC","dhdbt":-19,"dcdbt":27,"degday":4150,"strange":9,"ohr":8,"dgtemp":7,"janWind":18,"julWind":12,"monthlyTemps":[-3,-1,2,6,10,14,16,16,12,6,1,-2],"lat":54.52,"lng":-128.6},{"station":"Tofino","region":"BC","dhdbt":-2,"dcdbt":20,"degday":3150,"strange":8,"ohr":10,"dgtemp":11,"janWind":10,"julWind":9,"monthlyTemps":[5,5,6,8,10,12,14,15,13,10,7,5],"lat":49.12,"lng":-125.88},{"station":"Trail","region":"BC","dhdbt":-14,"dcdbt":33,"degday":3600,"strange":14,"ohr":9,"dgtemp":10,"janWind":8,"julWind":8,"monthlyTemps":[-3,null,4,9,13,17,20,20,15,8,2,-2],"lat":49.1,"lng":-117.7},{"station":"Ucluelet","region":"BC","dhdbt":-2,"dcdbt":18,"degday":3120,"strange":5,"ohr":11,"dgtemp":11,"janWind":18,"julWind":13,"monthlyTemps":[6,6,7,9,11,13,14,15,14,11,8,6],"lat":48.93,"lng":-125.55},{"station":"Vancouver (city hall)","region":"BC","dhdbt":-7,"dcdbt":28,"degday":2825,"strange":7,"ohr":11,"dgtemp":11,"janWind":11,"julWind":11,"monthlyTemps":[3,5,6,9,12,15,18,18,15,10,6,4],"lat":49.25,"lng":-123.12},{"station":"Vancouver (Granville & 41 Ave)","region":"BC","dhdbt":-6,"dcdbt":28,"degday":2925,"strange":9,"ohr":11,"dgtemp":12,"janWind":11,"julWind":11,"monthlyTemps":[3,5,6,9,12,15,18,18,15,10,6,4],"lat":49.2343,"lng":-123.1396},{"station":"Vernon","region":"BC","dhdbt":-20,"dcdbt":33,"degday":3600,"strange":13,"ohr":9,"dgtemp":10,"janWind":10,"julWind":12,"monthlyTemps":[-3,null,4,9,13,17,21,20,15,8,2,-2],"lat":50.3,"lng":-119.27},{"station":"Victoria","region":"BC","dhdbt":-4,"dcdbt":24,"degday":2650,"strange":10,"ohr":9,"dgtemp":12,"janWind":15,"julWind":15,"monthlyTemps":[6,6,8,10,12,15,16,16,15,11,8,6],"lat":48.43,"lng":-123.37},{"station":"Victoria Gonzales Height","region":"BC","dhdbt":-4,"dcdbt":24,"degday":2700,"strange":7,"ohr":9,"dgtemp":12,"janWind":15,"julWind":15,"monthlyTemps":[6,6,8,10,12,15,16,16,15,11,8,6],"lat":48.42,"lng":-123.32},{"station":"Victoria Mt Tolmie","region":"BC","dhdbt":-6,"dcdbt":24,"degday":2700,"strange":9,"ohr":8,"dgtemp":13,"janWind":7,"julWind":6,"monthlyTemps":[6,6,8,10,13,16,19,18,16,11,7,5],"lat":48.47,"lng":-123.33},{"station":"West Vancouver","region":"BC","dhdbt":-7,"dcdbt":28,"degday":2950,"strange":9,"ohr":10,"dgtemp":12,"janWind":5,"julWind":4,"monthlyTemps":[4,5,7,9,12,15,18,18,15,10,6,4],"lat":49.33,"lng":-123.17},{"station":"Whistler","region":"BC","dhdbt":-17,"dcdbt":30,"degday":4180,"strange":14,"ohr":11,"dgtemp":9,"janWind":3,"julWind":5,"monthlyTemps":[-3,-1,2,6,10,13,16,16,12,7,1,-3],"lat":50.12,"lng":-122.96},{"station":"White Rock","region":"BC","dhdbt":-5,"dcdbt":25,"degday":2620,"strange":8,"ohr":13,"dgtemp":12,"janWind":7,"julWind":5,"monthlyTemps":[5,6,8,10,13,16,18,18,15,11,7,5],"lat":49.02,"lng":-122.8},{"station":"Williams Lake","region":"BC","dhdbt":-30,"dcdbt":29,"degday":4400,"strange":12,"ohr":7,"dgtemp":7,"janWind":10,"julWind":8,"monthlyTemps":[-7,-4,null,5,10,13,16,15,11,5,-3,-7],"lat":52.1333,"lng":-122.15},{"station":"Youbou","region":"BC","dhdbt":-5,"dcdbt":31,"degday":3050,"strange":12,"ohr":9,"dgtemp":10,"janWind":4,"julWind":9,"monthlyTemps":[3,4,6,8,12,15,17,18,15,10,5,3],"lat":48.88,"lng":-124.2},{"station":"Beausejour","region":"MB","dhdbt":-33,"dcdbt":29,"degday":5680,"strange":13,"ohr":15,"dgtemp":6,"janWind":13,"julWind":11,"monthlyTemps":[-18,-14,-6,4,12,17,19,18,12,5,-5,-15],"lat":50.0667,"lng":-96.5167},{"station":"Boissevain","region":"MB","dhdbt":-32,"dcdbt":30,"degday":5500,"strange":12,"ohr":15,"dgtemp":6,"janWind":14,"julWind":12,"monthlyTemps":[-17,-13,-5,4,12,17,19,18,13,6,-4,-13],"lat":49.2333,"lng":-100.05},{"station":"Brandon","region":"MB","dhdbt":-33,"dcdbt":30,"degday":5760,"strange":13,"ohr":13,"dgtemp":6,"janWind":15,"julWind":12,"monthlyTemps":[-17,-13,-6,4,11,16,18,18,12,4,-6,-14],"lat":49.8333,"lng":-99.95},{"station":"Churchill","region":"MB","dhdbt":-38,"dcdbt":25,"degday":8950,"strange":8,"ohr":10,"dgtemp":-1,"janWind":22,"julWind":18,"monthlyTemps":[-27,-25,-19,-10,-1,7,12,12,6,-1,-13,-22],"lat":58.75,"lng":-94.12},{"station":"Dauphin","region":"MB","dhdbt":-33,"dcdbt":30,"degday":5900,"strange":12,"ohr":13,"dgtemp":5,"janWind":15,"julWind":13,"monthlyTemps":[-16,-12,-6,4,11,16,19,18,12,5,-6,-13],"lat":51.15,"lng":-100.05},{"station":"Flin Flon","region":"MB","dhdbt":-38,"dcdbt":27,"degday":6440,"strange":10,"ohr":12,"dgtemp":4,"janWind":9,"julWind":11,"monthlyTemps":[-20,-15,-8,2,10,16,19,17,10,3,-8,-18],"lat":54.77,"lng":-101.88},{"station":"Gimli","region":"MB","dhdbt":-34,"dcdbt":29,"degday":5800,"strange":11,"ohr":15,"dgtemp":6,"janWind":15,"julWind":13,"monthlyTemps":[-17,-14,-7,3,10,16,19,18,12,5,-5,-14],"lat":50.64,"lng":-96.99},{"station":"Island Lake","region":"MB","dhdbt":-36,"dcdbt":27,"degday":6900,"strange":9,"ohr":12,"dgtemp":4,"janWind":10,"julWind":10,"monthlyTemps":[-22,-19,-11,-1,8,14,18,17,10,2,-8,-17],"lat":53.8667,"lng":-94.6667},{"station":"Lac du Bonnet","region":"MB","dhdbt":-34,"dcdbt":29,"degday":5730,"strange":12,"ohr":15,"dgtemp":6,"janWind":8,"julWind":8,"monthlyTemps":[-17,-13,-6,3,10,16,19,18,13,5,-4,-11],"lat":50.27,"lng":-96.06},{"station":"Lynn Lake","region":"MB","dhdbt":-40,"dcdbt":27,"degday":7770,"strange":11,"ohr":11,"dgtemp":2,"janWind":11,"julWind":11,"monthlyTemps":[-24,-20,-13,-3,6,13,16,15,8,-1,-13,-21],"lat":56.85,"lng":-101.05},{"station":"Morden","region":"MB","dhdbt":-31,"dcdbt":30,"degday":5400,"strange":12,"ohr":16,"dgtemp":7,"janWind":13,"julWind":11,"monthlyTemps":[-16,-12,-5,5,13,18,20,19,13,6,-4,-12],"lat":49.1833,"lng":-98.1},{"station":"Neepawa","region":"MB","dhdbt":-32,"dcdbt":29,"degday":5760,"strange":12,"ohr":15,"dgtemp":6,"janWind":15,"julWind":12,"monthlyTemps":[-17,-13,-6,3,12,17,19,18,12,5,-5,-14],"lat":50.2333,"lng":-99.4667},{"station":"Pine Falls","region":"MB","dhdbt":-34,"dcdbt":28,"degday":5900,"strange":12,"ohr":16,"dgtemp":6,"janWind":9,"julWind":9,"monthlyTemps":[-19,-15,-7,4,12,16,19,18,12,5,-5,-16],"lat":50.5667,"lng":-96.2167},{"station":"Portage la Prairie","region":"MB","dhdbt":-31,"dcdbt":30,"degday":5600,"strange":12,"ohr":15,"dgtemp":6,"janWind":14,"julWind":11,"monthlyTemps":[-15,-12,-5,5,12,17,20,19,12,5,-6,-13],"lat":50,"lng":-98.29},{"station":"Rivers","region":"MB","dhdbt":-34,"dcdbt":29,"degday":5840,"strange":14,"ohr":15,"dgtemp":6,"janWind":16,"julWind":15,"monthlyTemps":[-14,-14,-5,5,13,17,19,17,12,4,-6,-14],"lat":50.0333,"lng":-100.2333},{"station":"Sandilands","region":"MB","dhdbt":-32,"dcdbt":29,"degday":5650,"strange":13,"ohr":15,"dgtemp":6,"janWind":15,"julWind":13,"monthlyTemps":[-17,-12,-5,4,12,17,19,18,12,5,-6,-13],"lat":49.36,"lng":-96.3},{"station":"Selkirk","region":"MB","dhdbt":-33,"dcdbt":29,"degday":5700,"strange":12,"ohr":15,"dgtemp":6,"janWind":13,"julWind":11,"monthlyTemps":[-17,-13,-6,4,12,17,20,19,13,6,-5,-14],"lat":50.15,"lng":-96.8667},{"station":"Split Lake","region":"MB","dhdbt":-38,"dcdbt":27,"degday":7900,"strange":11,"ohr":11,"dgtemp":1,"janWind":13,"julWind":13,"monthlyTemps":[-24,-21,-13,-3,6,13,16,15,8,null,-13,-22],"lat":56.25,"lng":-96.1},{"station":"Steinbach","region":"MB","dhdbt":-33,"dcdbt":29,"degday":5700,"strange":13,"ohr":15,"dgtemp":6,"janWind":16,"julWind":14,"monthlyTemps":[-17,-13,-6,4,12,17,19,18,12,5,-5,-14],"lat":49.5333,"lng":-96.6833},{"station":"Swan River","region":"MB","dhdbt":-34,"dcdbt":29,"degday":6100,"strange":13,"ohr":14,"dgtemp":5,"janWind":12,"julWind":10,"monthlyTemps":[-17,-14,-8,3,10,15,18,17,12,4,-6,-13],"lat":52.14,"lng":-101.27},{"station":"The Pas","region":"MB","dhdbt":-36,"dcdbt":28,"degday":6480,"strange":10,"ohr":13,"dgtemp":5,"janWind":13,"julWind":13,"monthlyTemps":[-19,-16,-9,1,9,15,18,17,11,3,-8,-16],"lat":53.87,"lng":-101.25},{"station":"Thompson","region":"MB","dhdbt":-40,"dcdbt":27,"degday":7600,"strange":13,"ohr":11,"dgtemp":2,"janWind":11,"julWind":11,"monthlyTemps":[-24,-20,-12,-2,6,13,16,15,8,null,-12,-21],"lat":55.79,"lng":-97.86},{"station":"Virden","region":"MB","dhdbt":-33,"dcdbt":30,"degday":5620,"strange":13,"ohr":15,"dgtemp":6,"janWind":16,"julWind":15,"monthlyTemps":[-17,-12,-5,4,12,17,19,18,12,5,-5,-14],"lat":49.86,"lng":-100.93},{"station":"Winnipeg","region":"MB","dhdbt":-33,"dcdbt":30,"degday":5670,"strange":12,"ohr":15,"dgtemp":6,"janWind":18,"julWind":15,"monthlyTemps":[-16,-13,-6,4,12,17,20,19,13,5,-5,-13],"lat":49.89,"lng":-97.15},{"station":"Alma","region":"NB","dhdbt":-21,"dcdbt":26,"degday":4500,"strange":10,"ohr":12,"dgtemp":7,"janWind":18,"julWind":16,"monthlyTemps":[-7,-7,-2,4,9,14,17,17,13,8,3,-4],"lat":45.6,"lng":-64.95},{"station":"Bathurst","region":"NB","dhdbt":-23,"dcdbt":30,"degday":5020,"strange":11,"ohr":13,"dgtemp":7,"janWind":17,"julWind":12,"monthlyTemps":[-11,-10,-4,2,10,16,19,18,13,7,1,-8],"lat":47.6,"lng":-65.65},{"station":"Campbellton","region":"NB","dhdbt":-26,"dcdbt":29,"degday":5500,"strange":11,"ohr":14,"dgtemp":7,"janWind":16,"julWind":12,"monthlyTemps":[-13,-10,-4,2,9,16,19,17,12,6,null,-9],"lat":48,"lng":-66.67},{"station":"Edmundston","region":"NB","dhdbt":-27,"dcdbt":28,"degday":5320,"strange":12,"ohr":14,"dgtemp":7,"janWind":13,"julWind":9,"monthlyTemps":[-13,-12,-4,2,10,16,19,17,12,6,-1,-10],"lat":47.37,"lng":-68.33},{"station":"Fredericton","region":"NB","dhdbt":-24,"dcdbt":29,"degday":4670,"strange":12,"ohr":14,"dgtemp":8,"janWind":13,"julWind":10,"monthlyTemps":[-10,-8,-2,4,11,16,19,19,14,8,2,-6],"lat":45.95,"lng":-66.65},{"station":"Gagetown","region":"NB","dhdbt":-24,"dcdbt":29,"degday":4460,"strange":11,"ohr":14,"dgtemp":8,"janWind":14,"julWind":11,"monthlyTemps":[-9,-7,-2,5,11,16,20,19,14,8,2,-5],"lat":45.79,"lng":-66.16},{"station":"Grand Falls","region":"NB","dhdbt":-27,"dcdbt":28,"degday":5300,"strange":11,"ohr":14,"dgtemp":7,"janWind":13,"julWind":9,"monthlyTemps":[-13,-11,-5,3,11,15,18,17,12,6,-1,-10],"lat":47.05,"lng":-67.73},{"station":"Miramichi","region":"NB","dhdbt":-24,"dcdbt":30,"degday":4950,"strange":11,"ohr":13,"dgtemp":7,"janWind":14,"julWind":12,"monthlyTemps":[-10,-9,-3,3,10,15,19,18,13,7,null,-8],"lat":47.03,"lng":-65.47},{"station":"Moncton","region":"NB","dhdbt":-23,"dcdbt":28,"degday":4680,"strange":11,"ohr":13,"dgtemp":8,"janWind":19,"julWind":13,"monthlyTemps":[-9,-8,-3,3,10,15,19,18,14,8,2,-5],"lat":46.1,"lng":-64.78},{"station":"Oromocto","region":"NB","dhdbt":-24,"dcdbt":29,"degday":4650,"strange":11,"ohr":14,"dgtemp":8,"janWind":13,"julWind":11,"monthlyTemps":[-9,-8,-2,5,11,16,19,19,14,8,2,-5],"lat":45.84,"lng":-66.48},{"station":"Sackville","region":"NB","dhdbt":-22,"dcdbt":27,"degday":4590,"strange":10,"ohr":13,"dgtemp":8,"janWind":19,"julWind":17,"monthlyTemps":[-8,-7,-2,4,9,14,18,18,14,8,2,-4],"lat":45.88,"lng":-64.37},{"station":"Saint Andrews","region":"NB","dhdbt":-22,"dcdbt":25,"degday":4680,"strange":10,"ohr":13,"dgtemp":8,"janWind":15,"julWind":8,"monthlyTemps":[-8,-7,-2,4,10,14,17,17,13,8,3,-4],"lat":45.07,"lng":-67.05},{"station":"Saint George","region":"NB","dhdbt":-21,"dcdbt":25,"degday":4680,"strange":11,"ohr":13,"dgtemp":8,"janWind":13,"julWind":7,"monthlyTemps":[-8,-7,-2,5,11,16,18,18,14,8,2,-5],"lat":45.13,"lng":-66.82},{"station":"Saint John","region":"NB","dhdbt":-22,"dcdbt":25,"degday":4570,"strange":10,"ohr":13,"dgtemp":7,"janWind":18,"julWind":13,"monthlyTemps":[-8,-7,-2,4,10,14,17,17,13,8,3,-4],"lat":45.2667,"lng":-66.05},{"station":"Shippagan","region":"NB","dhdbt":-22,"dcdbt":28,"degday":4930,"strange":9,"ohr":13,"dgtemp":2,"janWind":22,"julWind":13,"monthlyTemps":[-10,-10,-4,2,9,15,19,18,14,7,1,-5],"lat":47.73,"lng":-64.7},{"station":"St. Stephen","region":"NB","dhdbt":-24,"dcdbt":28,"degday":4700,"strange":13,"ohr":14,"dgtemp":7,"janWind":8,"julWind":6,"monthlyTemps":[-8,-7,-2,5,11,16,18,18,14,8,2,-5],"lat":45.2,"lng":-67.28},{"station":"Woodstock","region":"NB","dhdbt":-26,"dcdbt":30,"degday":4910,"strange":13,"ohr":13,"dgtemp":8,"janWind":13,"julWind":10,"monthlyTemps":[-12,-10,-3,4,11,16,19,18,13,7,null,-8],"lat":46.16,"lng":-67.6},{"station":"Argentia","region":"NL","dhdbt":-12,"dcdbt":21,"degday":4600,"strange":5,"ohr":12,"dgtemp":8,"janWind":29,"julWind":18,"monthlyTemps":[-3,-3,-1,3,6,10,14,16,13,9,5,1],"lat":47.3,"lng":-53.98},{"station":"Bonavista","region":"NL","dhdbt":-14,"dcdbt":24,"degday":5000,"strange":7,"ohr":12,"dgtemp":7,"janWind":39,"julWind":25,"monthlyTemps":[-5,-5,-3,1,6,10,15,16,12,8,3,-1],"lat":48.65,"lng":-53.12},{"station":"Buchans","region":"NL","dhdbt":-24,"dcdbt":27,"degday":5250,"strange":9,"ohr":12,"dgtemp":6,"janWind":24,"julWind":17,"monthlyTemps":[-8,-9,-5,1,7,12,16,16,11,5,null,-5],"lat":48.8167,"lng":-56.8667},{"station":"Cape Harrison","region":"NL","dhdbt":-29,"dcdbt":26,"degday":6900,"strange":8,"ohr":7,"dgtemp":5,"janWind":24,"julWind":17,"monthlyTemps":[-16,-15,-10,-3,3,7,12,12,9,3,-3,-10],"lat":54.78,"lng":-57.95},{"station":"Cape Race","region":"NL","dhdbt":-11,"dcdbt":19,"degday":4900,"strange":5,"ohr":13,"dgtemp":7,"janWind":34,"julWind":22,"monthlyTemps":[-3,-4,-2,1,4,8,12,15,12,8,4,null],"lat":46.65,"lng":-53.07},{"station":"Channel-Port aux Basques","region":"NL","dhdbt":-13,"dcdbt":19,"degday":5000,"strange":6,"ohr":13,"dgtemp":7,"janWind":32,"julWind":19,"monthlyTemps":[-5,-6,-3,1,5,9,14,15,12,7,3,-2],"lat":47.57,"lng":-59.15},{"station":"Corner Brook","region":"NL","dhdbt":-16,"dcdbt":26,"degday":4760,"strange":9,"ohr":12,"dgtemp":8,"janWind":12,"julWind":9,"monthlyTemps":[-7,-7,-4,2,8,13,17,17,13,7,2,-3],"lat":48.95,"lng":-57.95},{"station":"Gander","region":"NL","dhdbt":-18,"dcdbt":27,"degday":5110,"strange":9,"ohr":12,"dgtemp":7,"janWind":24,"julWind":17,"monthlyTemps":[-7,-7,-4,2,7,12,16,16,12,6,1,-4],"lat":48.98,"lng":-54.59},{"station":"Grand Bank","region":"NL","dhdbt":-14,"dcdbt":20,"degday":4550,"strange":7,"ohr":12,"dgtemp":8,"janWind":29,"julWind":18,"monthlyTemps":[-4,-5,-2,2,6,11,15,16,13,8,4,null],"lat":47.1,"lng":-55.77},{"station":"Grand Falls","region":"NL","dhdbt":-26,"dcdbt":27,"degday":5020,"strange":11,"ohr":12,"dgtemp":7,"janWind":24,"julWind":17,"monthlyTemps":[-8,-8,-4,2,8,13,17,17,12,6,1,-4],"lat":48.93,"lng":-55.67},{"station":"Happy Valley-Goose Bay","region":"NL","dhdbt":-31,"dcdbt":27,"degday":6670,"strange":10,"ohr":11,"dgtemp":5,"janWind":17,"julWind":13,"monthlyTemps":[-18,-16,-9,-1,6,11,15,15,10,3,-4,-13],"lat":53.32,"lng":-60.37},{"station":"Labrador City","region":"NL","dhdbt":-36,"dcdbt":24,"degday":7710,"strange":10,"ohr":9,"dgtemp":3,"janWind":14,"julWind":13,"monthlyTemps":[-23,-21,-14,-5,4,10,14,12,7,null,-9,-19],"lat":52.95,"lng":-66.92},{"station":"St. Anthony","region":"NL","dhdbt":-25,"dcdbt":22,"degday":6440,"strange":7,"ohr":11,"dgtemp":5,"janWind":27,"julWind":20,"monthlyTemps":[-11,-11,-7,-1,4,8,13,14,10,4,-1,-7],"lat":51.37,"lng":-55.58},{"station":"St. John's","region":"NL","dhdbt":-15,"dcdbt":24,"degday":4800,"strange":8,"ohr":13,"dgtemp":7,"janWind":28,"julWind":21,"monthlyTemps":[-5,-5,-3,2,6,11,16,16,12,7,3,-2],"lat":47.57,"lng":-52.72},{"station":"Stephenville","region":"NL","dhdbt":-16,"dcdbt":24,"degday":4850,"strange":7,"ohr":12,"dgtemp":8,"janWind":25,"julWind":14,"monthlyTemps":[-6,-7,-4,3,8,12,16,17,13,8,3,-2],"lat":48.55,"lng":-58.58},{"station":"Twin Falls","region":"NL","dhdbt":-35,"dcdbt":24,"degday":7790,"strange":9,"ohr":9,"dgtemp":4,"janWind":14,"julWind":12,"monthlyTemps":[-22,-21,-13,-4,4,10,14,13,8,1,-8,-17],"lat":53.5,"lng":-64.53},{"station":"Wabana","region":"NL","dhdbt":-15,"dcdbt":24,"degday":4750,"strange":8,"ohr":13,"dgtemp":7,"janWind":27,"julWind":20,"monthlyTemps":[-5,-5,-3,2,6,11,16,16,12,7,3,-2],"lat":47.63,"lng":-52.95},{"station":"Wabush","region":"NL","dhdbt":-36,"dcdbt":24,"degday":7710,"strange":10,"ohr":9,"dgtemp":3,"janWind":14,"julWind":13,"monthlyTemps":[-23,-21,-14,-5,4,10,14,12,7,null,-9,-19],"lat":52.92,"lng":-66.87},{"station":"Amherst","region":"NS","dhdbt":-21,"dcdbt":27,"degday":4500,"strange":9,"ohr":13,"dgtemp":8,"janWind":19,"julWind":17,"monthlyTemps":[-8,-6,-2,4,10,15,18,18,14,8,3,-3],"lat":45.83,"lng":-64.2},{"station":"Antigonish","region":"NS","dhdbt":-17,"dcdbt":27,"degday":4510,"strange":11,"ohr":13,"dgtemp":8,"janWind":18,"julWind":15,"monthlyTemps":[-7,-5,-2,4,9,14,19,18,14,8,4,-2],"lat":45.62,"lng":-62},{"station":"Bridgewater","region":"NS","dhdbt":-15,"dcdbt":27,"degday":4140,"strange":13,"ohr":12,"dgtemp":7,"janWind":19,"julWind":15,"monthlyTemps":[-5,-5,null,5,10,15,19,19,14,8,4,-2],"lat":44.38,"lng":-64.52},{"station":"Canso","region":"NS","dhdbt":-13,"dcdbt":25,"degday":4400,"strange":6,"ohr":13,"dgtemp":8,"janWind":23,"julWind":17,"monthlyTemps":[-3,-4,-1,3,7,12,17,18,16,10,5,1],"lat":45.33,"lng":-61},{"station":"Dartmouth","region":"NS","dhdbt":-16,"dcdbt":26,"degday":4100,"strange":8,"ohr":12,"dgtemp":8,"janWind":18,"julWind":11,"monthlyTemps":[-5,-4,-1,4,9,14,18,18,15,10,5,-1],"lat":44.67,"lng":-63.57},{"station":"Debert","region":"NS","dhdbt":-21,"dcdbt":27,"degday":4500,"strange":12,"ohr":13,"dgtemp":7,"janWind":17,"julWind":12,"monthlyTemps":[-7,-6,-2,4,10,15,19,18,14,8,3,-4],"lat":45.43,"lng":-63.47},{"station":"Digby","region":"NS","dhdbt":-15,"dcdbt":25,"degday":4020,"strange":9,"ohr":13,"dgtemp":9,"janWind":18,"julWind":14,"monthlyTemps":[-4,-4,null,5,11,15,18,18,14,9,5,-1],"lat":44.62,"lng":-65.77},{"station":"Greenwood (CFB)","region":"NS","dhdbt":-18,"dcdbt":29,"degday":4140,"strange":11,"ohr":14,"dgtemp":7,"janWind":18,"julWind":12,"monthlyTemps":[-5,-5,-1,5,11,16,20,19,15,9,4,-2],"lat":44.98,"lng":-64.9},{"station":"Halifax","region":"NS","dhdbt":-16,"dcdbt":26,"degday":4000,"strange":8,"ohr":12,"dgtemp":8,"janWind":18,"julWind":11,"monthlyTemps":[-5,-4,-1,4,9,14,18,18,15,10,5,-1],"lat":44.65,"lng":-63.6},{"station":"Kentville","region":"NS","dhdbt":-18,"dcdbt":28,"degday":4130,"strange":11,"ohr":13,"dgtemp":9,"janWind":12,"julWind":8,"monthlyTemps":[-4,-3,null,5,11,17,20,19,16,9,4,-1],"lat":45.08,"lng":-64.5},{"station":"Liverpool","region":"NS","dhdbt":-16,"dcdbt":27,"degday":3990,"strange":7,"ohr":12,"dgtemp":9,"janWind":22,"julWind":15,"monthlyTemps":[-4,-3,null,4,8,12,15,16,14,10,5,null],"lat":44.03,"lng":-64.72},{"station":"Lockeport","region":"NS","dhdbt":-14,"dcdbt":25,"degday":4000,"strange":6,"ohr":13,"dgtemp":9,"janWind":22,"julWind":15,"monthlyTemps":[2,2,1,null,-1,-1,-2,-1,null,1,1,2],"lat":43.7,"lng":-65.12},{"station":"Louisburg","region":"NS","dhdbt":-15,"dcdbt":26,"degday":4530,"strange":8,"ohr":12,"dgtemp":8,"janWind":22,"julWind":18,"monthlyTemps":[-5,-5,-2,2,7,12,16,17,14,9,4,-2],"lat":45.92,"lng":-59.98},{"station":"Lunenburg","region":"NS","dhdbt":-15,"dcdbt":26,"degday":4140,"strange":7,"ohr":12,"dgtemp":8,"janWind":22,"julWind":15,"monthlyTemps":[-4,-3,null,4,8,12,15,16,14,10,5,null],"lat":44.38,"lng":-64.32},{"station":"New Glasgow","region":"NS","dhdbt":-19,"dcdbt":27,"degday":4320,"strange":11,"ohr":13,"dgtemp":7,"janWind":19,"julWind":15,"monthlyTemps":[-7,-7,-2,3,10,16,19,18,14,8,3,-3],"lat":45.58,"lng":-62.65},{"station":"North Sydney","region":"NS","dhdbt":-16,"dcdbt":27,"degday":4500,"strange":10,"ohr":13,"dgtemp":8,"janWind":21,"julWind":16,"monthlyTemps":[-5,-6,-3,2,8,13,18,18,14,9,4,-2],"lat":46.22,"lng":-60.25},{"station":"Pictou","region":"NS","dhdbt":-19,"dcdbt":27,"degday":4310,"strange":10,"ohr":13,"dgtemp":8,"janWind":19,"julWind":15,"monthlyTemps":[-7,-7,-2,3,9,16,19,19,14,8,3,-2],"lat":45.68,"lng":-62.72},{"station":"Port Hawkesbury","region":"NS","dhdbt":-17,"dcdbt":27,"degday":4500,"strange":9,"ohr":13,"dgtemp":8,"janWind":19,"julWind":13,"monthlyTemps":[-6,-8,-3,3,8,14,18,18,14,9,4,-3],"lat":45.62,"lng":-61.35},{"station":"Springhill","region":"NS","dhdbt":-20,"dcdbt":27,"degday":4540,"strange":9,"ohr":13,"dgtemp":7,"janWind":19,"julWind":17,"monthlyTemps":[-7,-7,-3,3,10,15,19,18,14,8,2,-4],"lat":45.65,"lng":-64.05},{"station":"Stewiacke","region":"NS","dhdbt":-20,"dcdbt":27,"degday":4400,"strange":11,"ohr":13,"dgtemp":7,"janWind":19,"julWind":14,"monthlyTemps":[-5,-4,-1,5,11,15,19,19,14,8,3,-2],"lat":45.13,"lng":-63.35},{"station":"Sydney","region":"NS","dhdbt":-16,"dcdbt":27,"degday":4530,"strange":9,"ohr":13,"dgtemp":8,"janWind":21,"julWind":16,"monthlyTemps":[-5,-6,-3,2,8,13,18,18,14,9,4,-2],"lat":46.15,"lng":-60.18},{"station":"Tatamagouche","region":"NS","dhdbt":-20,"dcdbt":27,"degday":4380,"strange":11,"ohr":13,"dgtemp":8,"janWind":19,"julWind":15,"monthlyTemps":[-7,-6,-2,3,10,16,19,19,14,8,3,-3],"lat":45.72,"lng":-63.3},{"station":"Truro","region":"NS","dhdbt":-20,"dcdbt":27,"degday":4500,"strange":12,"ohr":13,"dgtemp":7,"janWind":14,"julWind":10,"monthlyTemps":[-7,-7,-2,4,10,15,18,18,13,8,3,-4],"lat":45.37,"lng":-63.27},{"station":"Wolfville","region":"NS","dhdbt":-19,"dcdbt":28,"degday":4140,"strange":11,"ohr":13,"dgtemp":9,"janWind":12,"julWind":8,"monthlyTemps":[-4,-3,null,5,11,17,20,19,16,9,4,-1],"lat":45.08,"lng":-64.37},{"station":"Yarmouth","region":"NS","dhdbt":-14,"dcdbt":22,"degday":3990,"strange":7,"ohr":13,"dgtemp":9,"janWind":22,"julWind":14,"monthlyTemps":[-3,-3,null,5,10,14,17,17,14,10,5,null],"lat":43.83,"lng":-66.12},{"station":"Aklavik","region":"NT","dhdbt":-42,"dcdbt":26,"degday":9600,"strange":9,"ohr":8,"dgtemp":-2,"janWind":7,"julWind":11,"monthlyTemps":[-27,-25,-21,-13,null,11,14,11,4,-8,-21,-26],"lat":68.23,"lng":-135.01},{"station":"Echo Bay / Port Radium","region":"NT","dhdbt":-42,"dcdbt":22,"degday":9300,"strange":8,"ohr":9,"dgtemp":-1,"janWind":9,"julWind":9,"monthlyTemps":[-29,-28,-21,-11,3,12,13,10,5,-2,-15,-23],"lat":66.05,"lng":-117.88},{"station":"Fort Good Hope","region":"NT","dhdbt":-43,"dcdbt":28,"degday":8700,"strange":11,"ohr":9,"dgtemp":null,"janWind":4,"julWind":8,"monthlyTemps":[-27,-23,-20,-6,5,15,17,13,7,-4,-19,-23],"lat":66.29,"lng":-128.63},{"station":"Fort McPherson","region":"NT","dhdbt":-44,"dcdbt":26,"degday":9150,"strange":9,"ohr":8,"dgtemp":-2,"janWind":7,"julWind":11,"monthlyTemps":[-28,-24,-20,-10,2,13,15,12,4,-8,-21,-25],"lat":67.43,"lng":-134.88},{"station":"Fort Providence","region":"NT","dhdbt":-40,"dcdbt":28,"degday":7620,"strange":13,"ohr":9,"dgtemp":3,"janWind":5,"julWind":7,"monthlyTemps":[-24,-19,-14,-2,6,14,17,14,9,-1,-12,-20],"lat":61.35,"lng":-117.65},{"station":"Fort Resolution","region":"NT","dhdbt":-40,"dcdbt":26,"degday":7750,"strange":11,"ohr":10,"dgtemp":2,"janWind":12,"julWind":11,"monthlyTemps":[-25,-21,-15,-3,6,13,16,14,7,null,-10,-21],"lat":61.19,"lng":-113.67},{"station":"Fort Simpson","region":"NT","dhdbt":-42,"dcdbt":28,"degday":7660,"strange":11,"ohr":10,"dgtemp":2,"janWind":8,"julWind":9,"monthlyTemps":[-25,-20,-13,null,8,15,17,15,8,-2,-16,-22],"lat":61.93,"lng":-121.35},{"station":"Fort Smith","region":"NT","dhdbt":-41,"dcdbt":28,"degday":7300,"strange":11,"ohr":10,"dgtemp":3,"janWind":10,"julWind":10,"monthlyTemps":[-23,-19,-12,null,8,14,17,14,8,null,-12,-19],"lat":60,"lng":-111.88},{"station":"Hay River","region":"NT","dhdbt":-38,"dcdbt":27,"degday":7550,"strange":9,"ohr":9,"dgtemp":3,"janWind":12,"julWind":12,"monthlyTemps":[-22,-20,-14,-3,5,12,16,14,9,null,-12,-18],"lat":60.85,"lng":-115.7333},{"station":"Inuvik","region":"NT","dhdbt":-43,"dcdbt":26,"degday":9600,"strange":9,"ohr":8,"dgtemp":-2,"janWind":7,"julWind":11,"monthlyTemps":[-27,-26,-22,-12,null,12,14,11,4,-8,-21,-24],"lat":68.35,"lng":-133.72},{"station":"Mould Bay","region":"NT","dhdbt":-44,"dcdbt":11,"degday":12900,"strange":4,"ohr":5,"dgtemp":-9,"janWind":14,"julWind":18,"monthlyTemps":[-34,-34,-31,-24,-11,null,4,1,-6,-18,-28,-31],"lat":76.23,"lng":-119.33},{"station":"Norman Wells","region":"NT","dhdbt":-43,"dcdbt":28,"degday":8510,"strange":10,"ohr":9,"dgtemp":null,"janWind":10,"julWind":12,"monthlyTemps":[-26,-24,-18,-6,6,15,17,14,7,-5,-19,-23],"lat":65.2833,"lng":-126.85},{"station":"Rae-Edzo","region":"NT","dhdbt":-42,"dcdbt":25,"degday":8300,"strange":9,"ohr":9,"dgtemp":null,"janWind":12,"julWind":14,"monthlyTemps":[-27,-21,-18,-6,4,13,16,13,7,-3,-14,-22],"lat":62.83,"lng":-116.05},{"station":"Tungsten","region":"NT","dhdbt":-49,"dcdbt":26,"degday":7700,"strange":11,"ohr":7,"dgtemp":2,"janWind":11,"julWind":9,"monthlyTemps":[-20,-18,-13,-4,3,9,12,9,4,-3,-15,-19],"lat":61.95,"lng":-128.27},{"station":"Ulukhaqtuuq / Holman","region":"NT","dhdbt":-39,"dcdbt":18,"degday":10700,"strange":6,"ohr":6,"dgtemp":-5,"janWind":19,"julWind":18,"monthlyTemps":[-29,-28,-25,-17,-7,5,9,7,null,-9,-20,-26],"lat":70.73,"lng":-117.75},{"station":"Wrigley","region":"NT","dhdbt":-42,"dcdbt":28,"degday":8050,"strange":13,"ohr":9,"dgtemp":null,"janWind":8,"julWind":9,"monthlyTemps":[-27,-23,-16,-2,8,15,17,13,7,-4,-19,-25],"lat":63.23,"lng":-123.47},{"station":"Yellowknife","region":"NT","dhdbt":-41,"dcdbt":25,"degday":8170,"strange":8,"ohr":9,"dgtemp":1,"janWind":12,"julWind":14,"monthlyTemps":[-26,-23,-17,-5,4,13,17,14,7,-2,-14,-22],"lat":62.48,"lng":-114.35},{"station":"Alert","region":"NU","dhdbt":-43,"dcdbt":13,"degday":13030,"strange":4,"ohr":5,"dgtemp":-10,"janWind":7,"julWind":12,"monthlyTemps":[-32,-33,-33,-25,-12,-1,3,1,-8,-19,-26,-30],"lat":82.48,"lng":-62.25},{"station":"Arctic Bay","region":"NU","dhdbt":-42,"dcdbt":14,"degday":11900,"strange":7,"ohr":6,"dgtemp":-7,"janWind":7,"julWind":13,"monthlyTemps":[-31,-32,-29,-20,-8,3,6,4,-2,-12,-24,-31],"lat":73.03,"lng":-85.17},{"station":"Arviat","region":"NU","dhdbt":-40,"dcdbt":22,"degday":9850,"strange":7,"ohr":9,"dgtemp":-3,"janWind":24,"julWind":18,"monthlyTemps":[-30,-28,-23,-14,-4,4,11,11,4,-4,-16,-25],"lat":61.12,"lng":-94.05},{"station":"Baker Lake","region":"NU","dhdbt":-42,"dcdbt":23,"degday":10700,"strange":7,"ohr":7,"dgtemp":-5,"janWind":24,"julWind":17,"monthlyTemps":[-32,-31,-26,-17,-6,5,11,10,3,-7,-20,-27],"lat":64.32,"lng":-96.02},{"station":"Eureka","region":"NU","dhdbt":-47,"dcdbt":12,"degday":13500,"strange":4,"ohr":5,"dgtemp":-10,"janWind":8,"julWind":18,"monthlyTemps":[-37,-38,-37,-27,-10,3,6,3,-6,-21,-30,-34],"lat":79.9833,"lng":-85.95},{"station":"Igluligaarjuk / Chesterfield Inl","region":"NU","dhdbt":-40,"dcdbt":20,"degday":10500,"strange":7,"ohr":8,"dgtemp":-4,"janWind":24,"julWind":17,"monthlyTemps":[-32,-31,-25,-16,-6,4,11,9,3,-5,-17,-25],"lat":63.33,"lng":-90.7},{"station":"Iqaluit","region":"NU","dhdbt":-40,"dcdbt":17,"degday":9980,"strange":6,"ohr":7,"dgtemp":-3,"janWind":15,"julWind":12,"monthlyTemps":[-27,-28,-24,-14,-4,4,8,7,3,-4,-12,-21],"lat":63.73,"lng":-68.5},{"station":"Iqaluktuuttiaq / Cambridge Bay","region":"NU","dhdbt":-41,"dcdbt":18,"degday":11670,"strange":6,"ohr":7,"dgtemp":-7,"janWind":22,"julWind":20,"monthlyTemps":[-33,-33,-29,-21,-9,3,9,7,null,-11,-23,-29],"lat":69.12,"lng":-105.03},{"station":"Isachsen","region":"NU","dhdbt":-46,"dcdbt":12,"degday":13600,"strange":6,"ohr":6,"dgtemp":-11,"janWind":14,"julWind":16,"monthlyTemps":[-35,-37,-35,-27,-13,-1,3,null,-9,-20,-29,-34],"lat":78.78,"lng":-103.53},{"station":"Kangiqiniq / Rankin Inlet","region":"NU","dhdbt":-41,"dcdbt":21,"degday":10500,"strange":6,"ohr":8,"dgtemp":-4,"janWind":24,"julWind":19,"monthlyTemps":[-31,-30,-25,-16,-6,4,10,10,4,-5,-17,-26],"lat":62.82,"lng":-92.08},{"station":"Kanngiqtugaapik / Clyde River","region":"NU","dhdbt":-40,"dcdbt":14,"degday":11300,"strange":7,"ohr":6,"dgtemp":-6,"janWind":15,"julWind":13,"monthlyTemps":[-28,-30,-27,-19,-9,1,4,4,null,-8,-17,-25],"lat":70.45,"lng":-68.57},{"station":"Kugluktuk / Coppermine","region":"NU","dhdbt":-41,"dcdbt":23,"degday":10300,"strange":7,"ohr":9,"dgtemp":-4,"janWind":19,"julWind":14,"monthlyTemps":[-28,-28,-25,-17,-6,5,11,9,3,-7,-19,-25],"lat":67.83,"lng":-115.08},{"station":"Nottingham Island","region":"NU","dhdbt":-37,"dcdbt":16,"degday":10000,"strange":6,"ohr":8,"dgtemp":-3,"janWind":15,"julWind":15,"monthlyTemps":[-25,-26,-22,-14,-6,2,7,6,2,-4,-12,-20],"lat":63.1,"lng":-78},{"station":"Resolute","region":"NU","dhdbt":-42,"dcdbt":11,"degday":12360,"strange":4,"ohr":6,"dgtemp":-8,"janWind":20,"julWind":21,"monthlyTemps":[-32,-33,-30,-22,-10,null,4,2,-4,-14,-23,-29],"lat":74.68,"lng":-94.9},{"station":"Resolution Island","region":"NU","dhdbt":-32,"dcdbt":12,"degday":9000,"strange":4,"ohr":7,"dgtemp":-1,"janWind":39,"julWind":28,"monthlyTemps":[-20,-21,-17,-10,-4,1,6,5,1,-3,-7,-13],"lat":61.3,"lng":-64.8833},{"station":"Salliq / Coral Harbour","region":"NU","dhdbt":-41,"dcdbt":20,"degday":10720,"strange":7,"ohr":8,"dgtemp":-4,"janWind":19,"julWind":17,"monthlyTemps":[-30,-31,-25,-16,-7,3,10,8,2,-6,-17,-25],"lat":64.13,"lng":-83.17},{"station":"Ailsa Craig","region":"ON","dhdbt":-17,"dcdbt":30,"degday":3840,"strange":12,"ohr":15,"dgtemp":10,"janWind":19,"julWind":11,"monthlyTemps":[-6,-5,null,7,14,19,21,20,16,10,3,-3],"lat":43.13,"lng":-81.55},{"station":"Ajax","region":"ON","dhdbt":-20,"dcdbt":30,"degday":3820,"strange":10,"ohr":15,"dgtemp":10,"janWind":17,"julWind":10,"monthlyTemps":[-5,-4,null,6,12,17,20,20,15,9,4,-2],"lat":43.85,"lng":-79.03},{"station":"Alexandria","region":"ON","dhdbt":-24,"dcdbt":30,"degday":4600,"strange":11,"ohr":15,"dgtemp":9,"janWind":12,"julWind":8,"monthlyTemps":[-11,-11,-4,4,12,18,20,19,15,9,null,-8],"lat":45.32,"lng":-74.63},{"station":"Alliston","region":"ON","dhdbt":-23,"dcdbt":29,"degday":4200,"strange":12,"ohr":15,"dgtemp":9,"janWind":12,"julWind":10,"monthlyTemps":[-7,-6,-1,6,13,18,21,20,15,9,3,-3],"lat":44.15,"lng":-79.87},{"station":"Almonte","region":"ON","dhdbt":-26,"dcdbt":30,"degday":4620,"strange":12,"ohr":15,"dgtemp":9,"janWind":13,"julWind":9,"monthlyTemps":[-11,-8,-3,4,13,17,20,18,14,6,1,-8],"lat":45.23,"lng":-76.2},{"station":"Armstrong","region":"ON","dhdbt":-37,"dcdbt":28,"degday":6500,"strange":13,"ohr":13,"dgtemp":9,"janWind":8,"julWind":9,"monthlyTemps":[-18,-16,-8,null,7,14,17,15,11,3,-6,-13],"lat":50.3,"lng":-89.03},{"station":"Arnprior","region":"ON","dhdbt":-27,"dcdbt":30,"degday":4680,"strange":12,"ohr":15,"dgtemp":5,"janWind":14,"julWind":10,"monthlyTemps":[-12,-10,-3,5,13,18,21,19,14,8,1,-7],"lat":45.43,"lng":-76.35},{"station":"Atikokan","region":"ON","dhdbt":-33,"dcdbt":29,"degday":5750,"strange":12,"ohr":14,"dgtemp":9,"janWind":7,"julWind":7,"monthlyTemps":[-15,-12,-5,3,10,16,19,17,13,5,-3,-11],"lat":48.75,"lng":-91.62},{"station":"Attawapiskat","region":"ON","dhdbt":-37,"dcdbt":28,"degday":7100,"strange":13,"ohr":13,"dgtemp":6,"janWind":13,"julWind":13,"monthlyTemps":[-22,-19,-10,-3,5,12,15,14,9,3,-5,-17],"lat":52.93,"lng":-82.43},{"station":"Aurora","region":"ON","dhdbt":-21,"dcdbt":30,"degday":4210,"strange":10,"ohr":15,"dgtemp":9,"janWind":14,"julWind":10,"monthlyTemps":[-8,-7,-2,6,13,18,20,19,15,8,2,-4],"lat":44,"lng":-79.47},{"station":"Bancroft","region":"ON","dhdbt":-28,"dcdbt":29,"degday":4740,"strange":14,"ohr":15,"dgtemp":8,"janWind":7,"julWind":6,"monthlyTemps":[-10,-8,-3,4,11,16,18,17,13,6,null,-6],"lat":45.05,"lng":-77.85},{"station":"Barrie","region":"ON","dhdbt":-24,"dcdbt":29,"degday":4380,"strange":11,"ohr":15,"dgtemp":9,"janWind":13,"julWind":8,"monthlyTemps":[-8,-7,-2,5,12,17,20,19,15,9,2,-4],"lat":44.4,"lng":-79.67},{"station":"Barriefield","region":"ON","dhdbt":-22,"dcdbt":28,"degday":3990,"strange":9,"ohr":16,"dgtemp":10,"janWind":19,"julWind":13,"monthlyTemps":[-7,-6,-1,7,13,18,21,20,16,9,3,-3],"lat":44.23,"lng":-76.47},{"station":"Beaverton","region":"ON","dhdbt":-24,"dcdbt":30,"degday":4300,"strange":8,"ohr":15,"dgtemp":9,"janWind":17,"julWind":15,"monthlyTemps":[-9,-7,-3,5,12,18,20,20,16,9,3,-3],"lat":44.43,"lng":-79.15},{"station":"Belleville","region":"ON","dhdbt":-22,"dcdbt":29,"degday":3910,"strange":10,"ohr":15,"dgtemp":10,"janWind":17,"julWind":12,"monthlyTemps":[-7,-6,-1,7,14,19,22,21,16,9,3,-3],"lat":44.1667,"lng":-77.3833},{"station":"Belmont","region":"ON","dhdbt":-17,"dcdbt":30,"degday":3840,"strange":10,"ohr":16,"dgtemp":10,"janWind":19,"julWind":11,"monthlyTemps":[-7,-7,null,6,13,18,21,20,16,9,3,-3],"lat":42.88,"lng":-81.08},{"station":"Bracebridge","region":"ON","dhdbt":-26,"dcdbt":29,"degday":4800,"strange":12,"ohr":15,"dgtemp":8,"janWind":15,"julWind":12,"monthlyTemps":[-9,-9,-2,4,13,16,20,18,13,7,1,-6],"lat":45.03,"lng":-79.3},{"station":"Bradford","region":"ON","dhdbt":-23,"dcdbt":30,"degday":4280,"strange":12,"ohr":15,"dgtemp":9,"janWind":12,"julWind":10,"monthlyTemps":[-7,-6,-1,6,12,17,20,19,15,8,2,-4],"lat":44.12,"lng":-79.57},{"station":"Brampton","region":"ON","dhdbt":-19,"dcdbt":30,"degday":4100,"strange":11,"ohr":15,"dgtemp":9,"janWind":18,"julWind":13,"monthlyTemps":[-6,-6,-1,7,14,19,22,20,15,9,4,-3],"lat":43.68,"lng":-79.77},{"station":"Brantford","region":"ON","dhdbt":-18,"dcdbt":30,"degday":3900,"strange":11,"ohr":15,"dgtemp":10,"janWind":15,"julWind":12,"monthlyTemps":[-6,-5,null,7,14,19,21,20,16,9,4,-3],"lat":43.13,"lng":-80.27},{"station":"Brighton","region":"ON","dhdbt":-21,"dcdbt":29,"degday":4000,"strange":10,"ohr":15,"dgtemp":10,"janWind":17,"julWind":12,"monthlyTemps":[-6,-4,null,6,11,17,20,20,16,9,4,-1],"lat":44.03,"lng":-77.73},{"station":"Brockville","region":"ON","dhdbt":-23,"dcdbt":29,"degday":4060,"strange":10,"ohr":15,"dgtemp":10,"janWind":18,"julWind":13,"monthlyTemps":[-8,-7,-1,6,13,18,21,20,15,9,3,-4],"lat":44.59,"lng":-75.68},{"station":"Burk's Falls","region":"ON","dhdbt":-26,"dcdbt":29,"degday":5020,"strange":13,"ohr":14,"dgtemp":8,"janWind":12,"julWind":10,"monthlyTemps":[-13,-10,-5,3,11,15,17,17,12,6,null,-8],"lat":45.62,"lng":-79.4},{"station":"Burlington","region":"ON","dhdbt":-17,"dcdbt":31,"degday":3740,"strange":7,"ohr":14,"dgtemp":10,"janWind":15,"julWind":11,"monthlyTemps":[-3,-2,1,7,13,19,22,21,18,11,6,null],"lat":43.32,"lng":-79.8},{"station":"Cambridge","region":"ON","dhdbt":-18,"dcdbt":29,"degday":4100,"strange":12,"ohr":15,"dgtemp":10,"janWind":15,"julWind":10,"monthlyTemps":[-7,-6,-1,6,13,18,20,19,15,9,3,-4],"lat":43.38,"lng":-80.32},{"station":"Campbellford","region":"ON","dhdbt":-23,"dcdbt":30,"degday":4280,"strange":12,"ohr":15,"dgtemp":9,"janWind":13,"julWind":9,"monthlyTemps":[-5,-6,-1,7,14,19,21,20,15,9,2,-5],"lat":44.3,"lng":-77.8},{"station":"Cannington","region":"ON","dhdbt":-24,"dcdbt":30,"degday":4310,"strange":11,"ohr":15,"dgtemp":9,"janWind":13,"julWind":9,"monthlyTemps":[-7,-7,-2,5,12,18,20,19,15,8,2,-5],"lat":44.35,"lng":-79.03},{"station":"Carleton Place","region":"ON","dhdbt":-25,"dcdbt":30,"degday":4600,"strange":13,"ohr":15,"dgtemp":9,"janWind":13,"julWind":9,"monthlyTemps":[-10,-8,-2,6,13,18,21,19,14,8,1,-6],"lat":45.13,"lng":-76.15},{"station":"Cavan","region":"ON","dhdbt":-23,"dcdbt":30,"degday":4400,"strange":12,"ohr":15,"dgtemp":9,"janWind":13,"julWind":9,"monthlyTemps":[-8,-6,-2,6,12,17,19,19,15,8,2,-3],"lat":44.2,"lng":-78.47},{"station":"Centralia","region":"ON","dhdbt":-17,"dcdbt":30,"degday":3800,"strange":11,"ohr":15,"dgtemp":10,"janWind":19,"julWind":11,"monthlyTemps":[-6,-6,null,6,13,18,20,19,15,9,3,-3],"lat":43.28,"lng":-81.47},{"station":"CFB Borden","region":"ON","dhdbt":-23,"dcdbt":29,"degday":4300,"strange":13,"ohr":15,"dgtemp":8,"janWind":12,"julWind":10,"monthlyTemps":[-5,-6,-2,6,13,17,20,19,14,8,2,-5],"lat":44.27,"lng":-79.88},{"station":"Chapleau","region":"ON","dhdbt":-35,"dcdbt":27,"degday":5900,"strange":12,"ohr":13,"dgtemp":6,"janWind":10,"julWind":12,"monthlyTemps":[-16,-13,-7,1,9,14,17,16,11,4,-4,-12],"lat":47.83,"lng":-83.4},{"station":"Chatham","region":"ON","dhdbt":-16,"dcdbt":31,"degday":3470,"strange":10,"ohr":16,"dgtemp":11,"janWind":17,"julWind":13,"monthlyTemps":[-4,-2,2,8,15,20,22,21,18,11,5,-1],"lat":42.4,"lng":-82.18},{"station":"Chesley","region":"ON","dhdbt":-19,"dcdbt":29,"degday":4320,"strange":12,"ohr":14,"dgtemp":9,"janWind":17,"julWind":10,"monthlyTemps":[-7,-7,-2,5,11,16,19,18,14,8,2,-4],"lat":44.28,"lng":-81.08},{"station":"Clinton","region":"ON","dhdbt":-17,"dcdbt":29,"degday":4150,"strange":12,"ohr":15,"dgtemp":9,"janWind":19,"julWind":12,"monthlyTemps":[-6,-6,-1,6,13,17,20,19,15,9,3,-3],"lat":43.62,"lng":-81.53},{"station":"Coboconk","region":"ON","dhdbt":-25,"dcdbt":30,"degday":4500,"strange":11,"ohr":15,"dgtemp":8,"janWind":13,"julWind":9,"monthlyTemps":[-10,-9,-3,5,13,17,20,19,14,8,1,-6],"lat":44.65,"lng":-78.8},{"station":"Cobourg","region":"ON","dhdbt":-21,"dcdbt":29,"degday":3980,"strange":7,"ohr":15,"dgtemp":10,"janWind":15,"julWind":8,"monthlyTemps":[-6,-4,null,6,11,17,20,20,16,9,4,-1],"lat":43.97,"lng":-78.17},{"station":"Cochrane","region":"ON","dhdbt":-34,"dcdbt":29,"degday":6200,"strange":13,"ohr":12,"dgtemp":6,"janWind":12,"julWind":11,"monthlyTemps":[-18,-16,-9,1,9,14,17,15,10,4,-4,-15],"lat":49.07,"lng":-81.02},{"station":"Colborne","region":"ON","dhdbt":-21,"dcdbt":29,"degday":3980,"strange":7,"ohr":15,"dgtemp":10,"janWind":16,"julWind":10,"monthlyTemps":[-6,-4,null,6,11,17,20,20,16,9,4,-1],"lat":44,"lng":-77.88},{"station":"Collingwood","region":"ON","dhdbt":-21,"dcdbt":29,"degday":4180,"strange":8,"ohr":15,"dgtemp":8,"janWind":15,"julWind":10,"monthlyTemps":[-5,-5,-1,6,11,18,21,20,16,10,4,-2],"lat":44.48,"lng":-80.22},{"station":"Cornwall","region":"ON","dhdbt":-23,"dcdbt":30,"degday":4250,"strange":10,"ohr":15,"dgtemp":9,"janWind":17,"julWind":13,"monthlyTemps":[-9,-7,-1,6,14,19,22,20,16,9,3,-5],"lat":45.03,"lng":-74.73},{"station":"Corunna","region":"ON","dhdbt":-16,"dcdbt":31,"degday":3600,"strange":11,"ohr":16,"dgtemp":10,"janWind":18,"julWind":13,"monthlyTemps":[-5,-4,1,8,14,19,22,21,17,11,4,-2],"lat":42.88,"lng":-82.43},{"station":"Deep River","region":"ON","dhdbt":-29,"dcdbt":30,"degday":4900,"strange":12,"ohr":13,"dgtemp":8,"janWind":11,"julWind":9,"monthlyTemps":[-12,-10,-3,5,13,17,20,19,14,7,null,-8],"lat":46.1,"lng":-77.5},{"station":"Deseronto","region":"ON","dhdbt":-22,"dcdbt":29,"degday":4070,"strange":12,"ohr":15,"dgtemp":10,"janWind":18,"julWind":13,"monthlyTemps":[-8,-6,-1,6,13,18,20,20,15,9,3,-3],"lat":44.2,"lng":-77.05},{"station":"Dorchester","region":"ON","dhdbt":-18,"dcdbt":30,"degday":3900,"strange":10,"ohr":16,"dgtemp":10,"janWind":19,"julWind":11,"monthlyTemps":[-5,-5,null,7,13,18,21,20,16,9,4,-2],"lat":42.98,"lng":-81.07},{"station":"Dorion","region":"ON","dhdbt":-33,"dcdbt":28,"degday":5950,"strange":13,"ohr":13,"dgtemp":6,"janWind":12,"julWind":10,"monthlyTemps":[-18,-14,-7,1,9,13,16,15,10,5,-3,-13],"lat":48.78,"lng":-88.53},{"station":"Dresden","region":"ON","dhdbt":-16,"dcdbt":31,"degday":3750,"strange":11,"ohr":16,"dgtemp":11,"janWind":17,"julWind":13,"monthlyTemps":[-6,-5,1,7,14,19,21,20,16,10,4,-2],"lat":42.58,"lng":-82.18},{"station":"Dryden","region":"ON","dhdbt":-34,"dcdbt":28,"degday":5850,"strange":11,"ohr":14,"dgtemp":6,"janWind":12,"julWind":12,"monthlyTemps":[-23,-19,-12,-3,5,10,13,12,6,1,-9,-19],"lat":49.78,"lng":-92.75},{"station":"Dundalk","region":"ON","dhdbt":-22,"dcdbt":29,"degday":4700,"strange":11,"ohr":14,"dgtemp":8,"janWind":15,"julWind":10,"monthlyTemps":[-9,-8,-4,4,11,15,18,17,13,7,1,-5],"lat":44.1703,"lng":-80.3936},{"station":"Dunnville","region":"ON","dhdbt":-15,"dcdbt":30,"degday":3660,"strange":11,"ohr":16,"dgtemp":10,"janWind":18,"julWind":11,"monthlyTemps":[-6,-5,null,6,13,18,21,20,16,10,4,-2],"lat":42.9,"lng":-79.62},{"station":"Durham","region":"ON","dhdbt":-20,"dcdbt":29,"degday":4340,"strange":11,"ohr":14,"dgtemp":9,"janWind":17,"julWind":10,"monthlyTemps":[-8,-7,-2,5,12,17,19,19,14,8,2,-4],"lat":44.17,"lng":-80.82},{"station":"Dutton","region":"ON","dhdbt":-16,"dcdbt":31,"degday":3700,"strange":12,"ohr":16,"dgtemp":10,"janWind":17,"julWind":11,"monthlyTemps":[-6,-4,1,7,13,19,21,20,16,11,4,-2],"lat":42.67,"lng":-81.5},{"station":"Earlton","region":"ON","dhdbt":-33,"dcdbt":29,"degday":5730,"strange":12,"ohr":14,"dgtemp":6,"janWind":14,"julWind":13,"monthlyTemps":[-16,-12,-7,3,10,15,18,16,12,5,-3,-13],"lat":47.72,"lng":-79.82},{"station":"Edison","region":"ON","dhdbt":-34,"dcdbt":28,"degday":5740,"strange":14,"ohr":14,"dgtemp":6,"janWind":12,"julWind":12,"monthlyTemps":[-20,-16,-8,1,10,15,18,16,10,4,-5,-16],"lat":49.8,"lng":-93.55},{"station":"Elliot Lake","region":"ON","dhdbt":-26,"dcdbt":29,"degday":4950,"strange":11,"ohr":12,"dgtemp":7,"janWind":11,"julWind":11,"monthlyTemps":[-11,-10,-4,4,11,17,19,18,13,6,-1,-7],"lat":46.3811,"lng":-82.6572},{"station":"Elmvale","region":"ON","dhdbt":-24,"dcdbt":29,"degday":4200,"strange":12,"ohr":15,"dgtemp":8,"janWind":12,"julWind":7,"monthlyTemps":[-7,-7,-2,5,12,17,20,19,14,8,2,-4],"lat":44.58,"lng":-79.87},{"station":"Embro","region":"ON","dhdbt":-19,"dcdbt":30,"degday":3950,"strange":12,"ohr":15,"dgtemp":10,"janWind":17,"julWind":11,"monthlyTemps":[-6,-5,null,6,13,18,20,20,15,9,3,-3],"lat":43.15,"lng":-80.9},{"station":"Englehart","region":"ON","dhdbt":-33,"dcdbt":29,"degday":5800,"strange":12,"ohr":14,"dgtemp":6,"janWind":14,"julWind":13,"monthlyTemps":[-16,-12,-7,3,10,15,18,16,12,5,-3,-13],"lat":47.82,"lng":-79.87},{"station":"Espanola","region":"ON","dhdbt":-25,"dcdbt":29,"degday":4920,"strange":14,"ohr":12,"dgtemp":8,"janWind":16,"julWind":13,"monthlyTemps":[-12,-11,-5,4,11,16,19,17,12,6,null,-9],"lat":46.25,"lng":-81.77},{"station":"Etobicoke","region":"ON","dhdbt":-20,"dcdbt":31,"degday":3800,"strange":10,"ohr":16,"dgtemp":10,"janWind":18,"julWind":12,"monthlyTemps":[-5,-4,null,7,13,19,22,20,16,10,4,-2],"lat":43.7,"lng":-79.57},{"station":"Exeter","region":"ON","dhdbt":-17,"dcdbt":30,"degday":3900,"strange":11,"ohr":15,"dgtemp":10,"janWind":19,"julWind":12,"monthlyTemps":[-6,-6,null,6,13,18,20,19,15,9,3,-3],"lat":43.35,"lng":-81.48},{"station":"Fenelon Falls","region":"ON","dhdbt":-25,"dcdbt":30,"degday":4440,"strange":12,"ohr":15,"dgtemp":9,"janWind":13,"julWind":9,"monthlyTemps":[-9,-7,-2,5,12,18,20,18,14,9,2,-4],"lat":44.53,"lng":-78.75},{"station":"Fergus","region":"ON","dhdbt":-20,"dcdbt":29,"degday":4300,"strange":10,"ohr":15,"dgtemp":9,"janWind":16,"julWind":10,"monthlyTemps":[-8,-7,-2,5,12,17,20,19,14,8,2,-5],"lat":43.7,"lng":-80.37},{"station":"Forest","region":"ON","dhdbt":-16,"dcdbt":31,"degday":3740,"strange":11,"ohr":14,"dgtemp":10,"janWind":19,"julWind":12,"monthlyTemps":[-4,-4,1,7,13,19,21,20,16,10,4,-2],"lat":43.1,"lng":-82},{"station":"Fort Erie","region":"ON","dhdbt":-15,"dcdbt":30,"degday":3650,"strange":10,"ohr":16,"dgtemp":10,"janWind":24,"julWind":15,"monthlyTemps":[-5,-4,null,6,12,18,21,20,16,10,5,-1],"lat":42.9,"lng":-78.93},{"station":"Fort Erie (Ridgeway)","region":"ON","dhdbt":-15,"dcdbt":30,"degday":3600,"strange":10,"ohr":16,"dgtemp":10,"janWind":24,"julWind":15,"monthlyTemps":[-5,-4,null,6,12,18,21,20,16,10,5,-1],"lat":42.88,"lng":-79.05},{"station":"Fort Frances","region":"ON","dhdbt":-33,"dcdbt":29,"degday":5440,"strange":12,"ohr":14,"dgtemp":7,"janWind":10,"julWind":9,"monthlyTemps":[-16,-12,-4,4,12,17,20,18,12,6,-3,-12],"lat":48.61,"lng":-93.39},{"station":"Gananoque","region":"ON","dhdbt":-22,"dcdbt":28,"degday":4010,"strange":9,"ohr":16,"dgtemp":10,"janWind":18,"julWind":13,"monthlyTemps":[-7,-6,-1,7,13,18,21,20,16,9,3,-3],"lat":44.33,"lng":-76.17},{"station":"Geraldton","region":"ON","dhdbt":-36,"dcdbt":28,"degday":6450,"strange":12,"ohr":13,"dgtemp":5,"janWind":11,"julWind":11,"monthlyTemps":[-19,-15,-9,1,9,14,17,16,10,3,-6,-14],"lat":49.73,"lng":-86.95},{"station":"Glencoe","region":"ON","dhdbt":-16,"dcdbt":31,"degday":3680,"strange":12,"ohr":16,"dgtemp":11,"janWind":17,"julWind":10,"monthlyTemps":[-6,-4,1,7,13,19,21,20,16,11,4,-2],"lat":42.75,"lng":-81.72},{"station":"Goderich","region":"ON","dhdbt":-16,"dcdbt":29,"degday":4000,"strange":9,"ohr":15,"dgtemp":9,"janWind":21,"julWind":12,"monthlyTemps":[-4,-4,null,6,12,17,20,19,16,10,5,-1],"lat":43.75,"lng":-81.72},{"station":"Gore Bay","region":"ON","dhdbt":-24,"dcdbt":28,"degday":4700,"strange":9,"ohr":14,"dgtemp":8,"janWind":18,"julWind":14,"monthlyTemps":[-9,-8,-4,4,11,16,19,19,15,8,2,-4],"lat":45.92,"lng":-82.47},{"station":"Graham","region":"ON","dhdbt":-35,"dcdbt":29,"degday":5940,"strange":13,"ohr":14,"dgtemp":6,"janWind":8,"julWind":7,"monthlyTemps":[-19,-15,-8,1,10,15,18,16,10,4,-5,-15],"lat":49.25,"lng":-90.57},{"station":"Gravenhurst (Muskoka Airport)","region":"ON","dhdbt":-26,"dcdbt":29,"degday":4760,"strange":12,"ohr":15,"dgtemp":8,"janWind":15,"julWind":12,"monthlyTemps":[-10,-9,-3,4,12,16,19,18,13,7,1,-7],"lat":44.92,"lng":-79.37},{"station":"Grimsby","region":"ON","dhdbt":-16,"dcdbt":30,"degday":3520,"strange":11,"ohr":15,"dgtemp":10,"janWind":21,"julWind":13,"monthlyTemps":[-4,-4,1,7,14,19,22,21,17,10,5,-1],"lat":43.2,"lng":-79.57},{"station":"Guelph","region":"ON","dhdbt":-19,"dcdbt":29,"degday":4270,"strange":12,"ohr":15,"dgtemp":9,"janWind":15,"julWind":10,"monthlyTemps":[-8,-7,-1,6,12,17,20,19,14,8,2,-4],"lat":43.55,"lng":-80.25},{"station":"Guthrie","region":"ON","dhdbt":-24,"dcdbt":29,"degday":4300,"strange":11,"ohr":15,"dgtemp":9,"janWind":13,"julWind":8,"monthlyTemps":[-8,-7,-2,5,12,17,20,19,15,9,2,-4],"lat":44.47,"lng":-79.55},{"station":"Haileybury","region":"ON","dhdbt":-32,"dcdbt":30,"degday":5600,"strange":10,"ohr":13,"dgtemp":7,"janWind":13,"julWind":12,"monthlyTemps":[-15,-12,-6,2,11,17,20,18,13,7,-1,-10],"lat":47.45,"lng":-79.63},{"station":"Haldimand (Caledonia)","region":"ON","dhdbt":-18,"dcdbt":30,"degday":3750,"strange":12,"ohr":15,"dgtemp":9,"janWind":20,"julWind":13,"monthlyTemps":[-5,-4,null,7,13,19,21,20,16,10,3,-2],"lat":43.07,"lng":-79.93},{"station":"Haldimand (Hagersville)","region":"ON","dhdbt":-17,"dcdbt":30,"degday":3760,"strange":11,"ohr":15,"dgtemp":10,"janWind":18,"julWind":11,"monthlyTemps":[-4,-4,1,7,14,19,21,20,16,10,4,-2],"lat":42.97,"lng":-80.05},{"station":"Haliburton","region":"ON","dhdbt":-27,"dcdbt":29,"degday":4840,"strange":12,"ohr":15,"dgtemp":8,"janWind":11,"julWind":10,"monthlyTemps":[-11,-9,-4,4,12,16,19,18,13,7,1,-7],"lat":45.05,"lng":-78.52},{"station":"Halton Hills (Georgetown)","region":"ON","dhdbt":-19,"dcdbt":30,"degday":4200,"strange":14,"ohr":15,"dgtemp":9,"janWind":18,"julWind":12,"monthlyTemps":[-7,-6,-1,6,12,17,20,19,14,8,2,-3],"lat":43.65,"lng":-79.92},{"station":"Hamilton","region":"ON","dhdbt":-17,"dcdbt":31,"degday":3460,"strange":10,"ohr":14,"dgtemp":10,"janWind":17,"julWind":13,"monthlyTemps":[-5,-4,null,7,13,19,22,21,16,10,4,-2],"lat":43.25,"lng":-79.86},{"station":"Hanover","region":"ON","dhdbt":-19,"dcdbt":29,"degday":4300,"strange":13,"ohr":14,"dgtemp":9,"janWind":17,"julWind":10,"monthlyTemps":[-7,-7,-2,5,12,17,19,19,14,8,2,-4],"lat":44.15,"lng":-81.03},{"station":"Hastings","region":"ON","dhdbt":-24,"dcdbt":30,"degday":4280,"strange":12,"ohr":15,"dgtemp":9,"janWind":13,"julWind":9,"monthlyTemps":[-8,-7,-1,6,12,18,20,20,14,9,2,-4],"lat":44.3,"lng":-77.95},{"station":"Hawkesbury","region":"ON","dhdbt":-25,"dcdbt":30,"degday":4610,"strange":12,"ohr":15,"dgtemp":9,"janWind":12,"julWind":8,"monthlyTemps":[-11,-9,-3,5,13,18,20,19,14,7,null,-8],"lat":45.6,"lng":-74.62},{"station":"Hearst","region":"ON","dhdbt":-35,"dcdbt":29,"degday":6450,"strange":13,"ohr":12,"dgtemp":5,"janWind":10,"julWind":10,"monthlyTemps":[-19,-15,-9,null,8,15,17,16,12,4,-5,-12],"lat":49.68,"lng":-83.67},{"station":"Honey Harbour","region":"ON","dhdbt":-24,"dcdbt":29,"degday":4300,"strange":10,"ohr":15,"dgtemp":8,"janWind":9,"julWind":6,"monthlyTemps":[-8,-7,-2,5,12,18,21,20,16,9,3,-3],"lat":44.87,"lng":-79.82},{"station":"Hornepayne","region":"ON","dhdbt":-37,"dcdbt":28,"degday":6340,"strange":15,"ohr":13,"dgtemp":5,"janWind":9,"julWind":9,"monthlyTemps":[-20,-16,-9,null,9,13,16,14,9,4,-4,-15],"lat":49.22,"lng":-84.78},{"station":"Huntsville","region":"ON","dhdbt":-26,"dcdbt":29,"degday":4850,"strange":11,"ohr":14,"dgtemp":8,"janWind":15,"julWind":12,"monthlyTemps":[-10,-9,-3,5,12,17,19,18,14,8,1,-6],"lat":45.33,"lng":-79.22},{"station":"Ingersoll","region":"ON","dhdbt":-18,"dcdbt":30,"degday":3920,"strange":10,"ohr":15,"dgtemp":10,"janWind":19,"julWind":11,"monthlyTemps":[-6,-5,null,6,13,18,21,20,16,9,3,-3],"lat":43.03,"lng":-80.88},{"station":"Iroquois Falls","region":"ON","dhdbt":-33,"dcdbt":29,"degday":6100,"strange":14,"ohr":12,"dgtemp":5,"janWind":12,"julWind":11,"monthlyTemps":[-18,-16,-9,1,9,15,17,16,10,4,-4,-14],"lat":48.77,"lng":-80.68},{"station":"Jellicoe","region":"ON","dhdbt":-36,"dcdbt":28,"degday":6400,"strange":12,"ohr":13,"dgtemp":5,"janWind":11,"julWind":11,"monthlyTemps":[-19,-15,-9,1,9,14,17,16,10,3,-6,-14],"lat":49.68,"lng":-87.52},{"station":"Kapuskasing","region":"ON","dhdbt":-34,"dcdbt":29,"degday":6250,"strange":12,"ohr":12,"dgtemp":5,"janWind":13,"julWind":11,"monthlyTemps":[-18,-15,-8,1,9,15,17,16,11,4,-4,-13],"lat":49.42,"lng":-82.43},{"station":"Kemptville","region":"ON","dhdbt":-25,"dcdbt":30,"degday":4540,"strange":12,"ohr":15,"dgtemp":9,"janWind":11,"julWind":8,"monthlyTemps":[-10,-9,-3,6,13,18,20,19,14,8,1,-7],"lat":45.02,"lng":-75.64},{"station":"Kenora","region":"ON","dhdbt":-33,"dcdbt":28,"degday":5630,"strange":9,"ohr":14,"dgtemp":6,"janWind":13,"julWind":13,"monthlyTemps":[-16,-12,-5,4,11,17,20,19,13,5,-5,-13],"lat":49.82,"lng":-94.43},{"station":"Killaloe","region":"ON","dhdbt":-28,"dcdbt":30,"degday":4960,"strange":14,"ohr":13,"dgtemp":8,"janWind":12,"julWind":10,"monthlyTemps":[-12,-10,-4,-5,12,17,19,18,13,8,1,-8],"lat":45.55,"lng":-77.42},{"station":"Kincardine","region":"ON","dhdbt":-17,"dcdbt":28,"degday":3890,"strange":10,"ohr":14,"dgtemp":10,"janWind":21,"julWind":12,"monthlyTemps":[-5,-4,null,5,12,18,19,19,15,10,3,-2],"lat":44.18,"lng":-81.63},{"station":"Kingston","region":"ON","dhdbt":-22,"dcdbt":28,"degday":4000,"strange":9,"ohr":16,"dgtemp":10,"janWind":19,"julWind":13,"monthlyTemps":[-7,-6,-1,7,13,18,21,20,16,9,3,-3],"lat":44.23,"lng":-76.48},{"station":"Kinmount","region":"ON","dhdbt":-26,"dcdbt":29,"degday":4600,"strange":13,"ohr":15,"dgtemp":9,"janWind":13,"julWind":9,"monthlyTemps":[-10,-9,-3,5,12,16,19,18,13,7,1,-6],"lat":44.78,"lng":-78.65},{"station":"Kirkland Lake","region":"ON","dhdbt":-33,"dcdbt":29,"degday":6000,"strange":12,"ohr":14,"dgtemp":6,"janWind":13,"julWind":12,"monthlyTemps":[-17,-15,-8,1,10,15,18,16,11,5,-4,-13],"lat":48.15,"lng":-80.03},{"station":"Kitchener","region":"ON","dhdbt":-19,"dcdbt":29,"degday":4200,"strange":12,"ohr":15,"dgtemp":9,"janWind":15,"julWind":10,"monthlyTemps":[-7,-6,-1,6,13,17,20,19,14,8,2,-4],"lat":43.45,"lng":-80.48},{"station":"Kitchenuhmaykoosib","region":"ON","dhdbt":-38,"dcdbt":26,"degday":7450,"strange":11,"ohr":12,"dgtemp":3,"janWind":14,"julWind":15,"monthlyTemps":[-22,-20,-12,-3,6,13,16,15,9,2,-8,-17],"lat":53.83,"lng":-90},{"station":"Lakefield","region":"ON","dhdbt":-24,"dcdbt":30,"degday":4330,"strange":12,"ohr":15,"dgtemp":9,"janWind":13,"julWind":9,"monthlyTemps":[-8,-7,-1,6,13,18,20,19,15,8,2,-5],"lat":44.43,"lng":-78.27},{"station":"Lansdowne House","region":"ON","dhdbt":-38,"dcdbt":28,"degday":7150,"strange":10,"ohr":13,"dgtemp":5,"janWind":14,"julWind":14,"monthlyTemps":[-21,-18,-11,-1,7,14,17,16,10,3,-7,-16],"lat":52.23,"lng":-87.88},{"station":"Leamington","region":"ON","dhdbt":-15,"dcdbt":31,"degday":3400,"strange":9,"ohr":16,"dgtemp":11,"janWind":15,"julWind":9,"monthlyTemps":[-5,-4,1,7,14,19,22,21,17,11,5,-1],"lat":42.08,"lng":-82.57},{"station":"Lindsay","region":"ON","dhdbt":-24,"dcdbt":30,"degday":4320,"strange":12,"ohr":15,"dgtemp":9,"janWind":12,"julWind":10,"monthlyTemps":[-9,-7,-2,6,13,17,20,19,14,8,2,-5],"lat":44.35,"lng":-78.73},{"station":"Lion's Head","region":"ON","dhdbt":-19,"dcdbt":27,"degday":4300,"strange":10,"ohr":15,"dgtemp":8,"janWind":19,"julWind":12,"monthlyTemps":[-6,-6,-2,5,11,16,19,18,15,9,3,-3],"lat":44.98,"lng":-81.25},{"station":"Listowel","region":"ON","dhdbt":-19,"dcdbt":29,"degday":4300,"strange":11,"ohr":15,"dgtemp":9,"janWind":17,"julWind":11,"monthlyTemps":[-6,-7,-1,5,12,17,19,19,14,8,2,-4],"lat":43.73,"lng":-80.95},{"station":"London","region":"ON","dhdbt":-18,"dcdbt":30,"degday":3900,"strange":10,"ohr":16,"dgtemp":10,"janWind":19,"julWind":11,"monthlyTemps":[-5,-5,null,7,13,18,21,20,16,9,4,-2],"lat":42.98,"lng":-81.23},{"station":"Lucan","region":"ON","dhdbt":-17,"dcdbt":30,"degday":3900,"strange":12,"ohr":15,"dgtemp":10,"janWind":19,"julWind":11,"monthlyTemps":[-6,-5,null,7,14,19,21,20,16,10,3,-3],"lat":43.18,"lng":-81.4},{"station":"Maitland","region":"ON","dhdbt":-23,"dcdbt":29,"degday":4080,"strange":10,"ohr":15,"dgtemp":10,"janWind":18,"julWind":13,"monthlyTemps":[-8,-7,-1,6,13,18,21,20,15,9,3,-4],"lat":44.63,"lng":-75.62},{"station":"Markdale","region":"ON","dhdbt":-20,"dcdbt":29,"degday":4500,"strange":11,"ohr":14,"dgtemp":8,"janWind":17,"julWind":10,"monthlyTemps":[-8,-7,-3,4,11,17,18,18,13,8,1,-5],"lat":44.32,"lng":-80.65},{"station":"Markham","region":"ON","dhdbt":-21,"dcdbt":31,"degday":4000,"strange":11,"ohr":16,"dgtemp":10,"janWind":15,"julWind":11,"monthlyTemps":[-6,-5,-1,6,13,19,21,20,16,9,3,-3],"lat":43.87,"lng":-79.27},{"station":"Martin","region":"ON","dhdbt":-35,"dcdbt":29,"degday":5900,"strange":13,"ohr":14,"dgtemp":6,"janWind":8,"julWind":7,"monthlyTemps":[-19,-15,-8,1,10,15,18,16,10,4,-5,-15],"lat":49.25,"lng":-91.13},{"station":"Matheson","region":"ON","dhdbt":-33,"dcdbt":29,"degday":6080,"strange":13,"ohr":12,"dgtemp":6,"janWind":12,"julWind":11,"monthlyTemps":[-17,-15,-8,1,10,15,18,16,11,5,-4,-13],"lat":48.53,"lng":-80.47},{"station":"Mattawa","region":"ON","dhdbt":-29,"dcdbt":30,"degday":5050,"strange":12,"ohr":13,"dgtemp":8,"janWind":12,"julWind":10,"monthlyTemps":[-12,-12,-5,2,11,16,19,18,13,8,null,-8],"lat":46.32,"lng":-78.7},{"station":"Midland","region":"ON","dhdbt":-24,"dcdbt":29,"degday":4200,"strange":10,"ohr":15,"dgtemp":8,"janWind":9,"julWind":6,"monthlyTemps":[-9,-7,-2,6,13,18,21,20,15,9,3,-4],"lat":44.75,"lng":-79.88},{"station":"Milton","region":"ON","dhdbt":-18,"dcdbt":30,"degday":3920,"strange":12,"ohr":15,"dgtemp":10,"janWind":15,"julWind":11,"monthlyTemps":[-7,-6,-1,6,12,17,20,19,15,9,3,-3],"lat":43.52,"lng":-79.88},{"station":"Milverton","region":"ON","dhdbt":-19,"dcdbt":29,"degday":4200,"strange":11,"ohr":15,"dgtemp":9,"janWind":17,"julWind":11,"monthlyTemps":[-6,-7,-1,5,12,17,19,19,14,8,2,-4],"lat":43.57,"lng":-80.92},{"station":"Minden","region":"ON","dhdbt":-27,"dcdbt":29,"degday":4640,"strange":14,"ohr":15,"dgtemp":8,"janWind":14,"julWind":10,"monthlyTemps":[-10,-9,-3,5,12,16,19,18,13,7,1,-6],"lat":44.92,"lng":-78.73},{"station":"Mississauga","region":"ON","dhdbt":-18,"dcdbt":30,"degday":3880,"strange":9,"ohr":15,"dgtemp":10,"janWind":18,"julWind":12,"monthlyTemps":[-5,-4,null,6,12,17,21,20,16,10,5,-1],"lat":43.58,"lng":-79.65},{"station":"Mississauga (LBP Int'l Airport)","region":"ON","dhdbt":-20,"dcdbt":31,"degday":3890,"strange":10,"ohr":16,"dgtemp":10,"janWind":18,"julWind":12,"monthlyTemps":[-5,-4,null,7,13,19,22,20,16,10,4,-2],"lat":43.68,"lng":-79.61},{"station":"Mississauga (Port Credit)","region":"ON","dhdbt":-18,"dcdbt":29,"degday":3780,"strange":9,"ohr":15,"dgtemp":10,"janWind":23,"julWind":12,"monthlyTemps":[-5,-4,null,6,12,17,21,20,16,10,5,-1],"lat":43.55,"lng":-79.58},{"station":"Mitchell","region":"ON","dhdbt":-18,"dcdbt":29,"degday":4100,"strange":12,"ohr":15,"dgtemp":9,"janWind":17,"julWind":11,"monthlyTemps":[-7,-7,-1,6,13,17,20,19,15,8,2,-4],"lat":43.47,"lng":-81.2},{"station":"Moosonee","region":"ON","dhdbt":-36,"dcdbt":28,"degday":6800,"strange":12,"ohr":14,"dgtemp":5,"janWind":11,"julWind":11,"monthlyTemps":[-20,-17,-11,-2,7,13,16,16,11,5,-4,-13],"lat":51.32,"lng":-80.72},{"station":"Morrisburg","region":"ON","dhdbt":-23,"dcdbt":30,"degday":4370,"strange":12,"ohr":15,"dgtemp":9,"janWind":18,"julWind":13,"monthlyTemps":[-10,-9,-2,6,13,18,20,19,14,8,2,-6],"lat":44.9,"lng":-75.18},{"station":"Mount Forest","region":"ON","dhdbt":-21,"dcdbt":28,"degday":4700,"strange":10,"ohr":14,"dgtemp":9,"janWind":16,"julWind":18,"monthlyTemps":[-7,-7,-2,5,11,17,19,18,14,8,2,-4],"lat":43.98,"lng":-80.73},{"station":"Nakina","region":"ON","dhdbt":-36,"dcdbt":28,"degday":6500,"strange":12,"ohr":13,"dgtemp":5,"janWind":11,"julWind":11,"monthlyTemps":[-19,-15,-9,1,9,14,17,16,10,3,-6,-14],"lat":50.17,"lng":-86.7},{"station":"Nanticoke (Jarvis)","region":"ON","dhdbt":-17,"dcdbt":30,"degday":3700,"strange":11,"ohr":15,"dgtemp":10,"janWind":17,"julWind":11,"monthlyTemps":[-6,-5,null,6,13,18,21,20,16,9,4,-3],"lat":42.88,"lng":-80.1},{"station":"Nanticoke (Port Dover)","region":"ON","dhdbt":-15,"dcdbt":30,"degday":3600,"strange":10,"ohr":16,"dgtemp":10,"janWind":17,"julWind":11,"monthlyTemps":[-6,-5,null,6,13,18,21,20,16,10,4,-2],"lat":42.78,"lng":-80.2},{"station":"Napanee","region":"ON","dhdbt":-22,"dcdbt":29,"degday":4140,"strange":12,"ohr":15,"dgtemp":9,"janWind":18,"julWind":13,"monthlyTemps":[-8,-6,-1,6,13,18,20,20,15,9,3,-3],"lat":44.25,"lng":-76.95},{"station":"New Liskeard","region":"ON","dhdbt":-32,"dcdbt":30,"degday":5570,"strange":13,"ohr":13,"dgtemp":7,"janWind":13,"julWind":12,"monthlyTemps":[-16,-15,-7,1,10,16,19,16,11,6,-2,-12],"lat":47.5,"lng":-79.67},{"station":"Newcastle","region":"ON","dhdbt":-20,"dcdbt":30,"degday":3990,"strange":11,"ohr":15,"dgtemp":9,"janWind":15,"julWind":8,"monthlyTemps":[-6,-5,null,6,12,17,20,19,15,8,3,-3],"lat":43.92,"lng":-78.58},{"station":"Newcastle (Bowmanville)","region":"ON","dhdbt":-20,"dcdbt":30,"degday":4000,"strange":11,"ohr":15,"dgtemp":10,"janWind":15,"julWind":8,"monthlyTemps":[-6,-5,null,6,12,17,20,19,15,8,3,-3],"lat":43.91,"lng":-78.68},{"station":"Newmarket","region":"ON","dhdbt":-22,"dcdbt":30,"degday":4260,"strange":11,"ohr":15,"dgtemp":9,"janWind":13,"julWind":10,"monthlyTemps":[-7,-6,-1,6,12,17,20,19,15,8,2,-4],"lat":44.05,"lng":-79.47},{"station":"Niagara Falls","region":"ON","dhdbt":-16,"dcdbt":30,"degday":3600,"strange":10,"ohr":15,"dgtemp":10,"janWind":21,"julWind":13,"monthlyTemps":[-4,-4,1,7,14,19,22,21,17,11,5,-1],"lat":43.1,"lng":-79.07},{"station":"North Bay","region":"ON","dhdbt":-28,"dcdbt":28,"degday":5150,"strange":9,"ohr":14,"dgtemp":7,"janWind":14,"julWind":11,"monthlyTemps":[-12,-10,-5,4,11,16,19,18,13,6,-1,-8],"lat":46.32,"lng":-79.47},{"station":"North York","region":"ON","dhdbt":-20,"dcdbt":31,"degday":3760,"strange":12,"ohr":16,"dgtemp":10,"janWind":18,"julWind":13,"monthlyTemps":[-7,-6,-1,6,13,18,21,20,15,9,3,-3],"lat":43.77,"lng":-79.42},{"station":"Norwood","region":"ON","dhdbt":-24,"dcdbt":30,"degday":4320,"strange":12,"ohr":15,"dgtemp":9,"janWind":13,"julWind":9,"monthlyTemps":[-9,-9,-2,5,13,17,20,19,14,8,2,-6],"lat":44.38,"lng":-77.98},{"station":"Oakville","region":"ON","dhdbt":-18,"dcdbt":30,"degday":3760,"strange":11,"ohr":15,"dgtemp":10,"janWind":23,"julWind":12,"monthlyTemps":[-5,-4,null,6,12,18,21,20,16,9,4,-2],"lat":43.45,"lng":-79.68},{"station":"Orangeville","region":"ON","dhdbt":-21,"dcdbt":29,"degday":4450,"strange":12,"ohr":15,"dgtemp":8,"janWind":14,"julWind":10,"monthlyTemps":[-8,-7,-2,5,12,17,19,18,14,8,2,-5],"lat":43.92,"lng":-80.1},{"station":"Orillia","region":"ON","dhdbt":-25,"dcdbt":29,"degday":4260,"strange":10,"ohr":15,"dgtemp":8,"janWind":14,"julWind":10,"monthlyTemps":[-8,-8,-2,6,13,17,21,19,15,8,2,-5],"lat":44.62,"lng":-79.42},{"station":"Oshawa","region":"ON","dhdbt":-19,"dcdbt":30,"degday":3860,"strange":11,"ohr":15,"dgtemp":10,"janWind":15,"julWind":9,"monthlyTemps":[-6,-5,1,7,14,18,21,20,16,9,4,-3],"lat":43.9,"lng":-78.85},{"station":"Ottawa (Barrhaven)","region":"ON","dhdbt":-25,"dcdbt":30,"degday":4500,"strange":10,"ohr":15,"dgtemp":9,"janWind":15,"julWind":10,"monthlyTemps":[-10,-8,-2,6,13,19,21,20,15,8,2,-6],"lat":45.28,"lng":-75.76},{"station":"Ottawa (city hall)","region":"ON","dhdbt":-25,"dcdbt":30,"degday":4440,"strange":11,"ohr":15,"dgtemp":10,"janWind":12,"julWind":9,"monthlyTemps":[-10,-9,-2,6,14,18,21,20,15,8,2,-7],"lat":45.42,"lng":-75.69},{"station":"Ottawa (Kanata)","region":"ON","dhdbt":-25,"dcdbt":30,"degday":4520,"strange":10,"ohr":15,"dgtemp":9,"janWind":15,"julWind":10,"monthlyTemps":[-11,-10,-3,6,13,18,21,19,15,11,1,-7],"lat":45.31,"lng":-75.91},{"station":"Ottawa (M-C Int'l Airport)","region":"ON","dhdbt":-25,"dcdbt":30,"degday":4500,"strange":10,"ohr":15,"dgtemp":9,"janWind":15,"julWind":10,"monthlyTemps":[-10,-8,-2,6,13,19,21,20,15,8,2,-6],"lat":45.32,"lng":-75.67},{"station":"Ottawa (Orleans)","region":"ON","dhdbt":-26,"dcdbt":30,"degday":4500,"strange":11,"ohr":15,"dgtemp":8,"janWind":14,"julWind":12,"monthlyTemps":[-11,-10,-3,5,13,18,21,19,14,8,1,-7],"lat":45.48,"lng":-75.52},{"station":"Owen Sound","region":"ON","dhdbt":-19,"dcdbt":29,"degday":4030,"strange":10,"ohr":14,"dgtemp":9,"janWind":17,"julWind":10,"monthlyTemps":[-6,-6,-1,5,11,16,20,19,15,10,3,-2],"lat":44.57,"lng":-80.93},{"station":"Pagwa River","region":"ON","dhdbt":-35,"dcdbt":28,"degday":6500,"strange":13,"ohr":13,"dgtemp":5,"janWind":10,"julWind":10,"monthlyTemps":[-19,-15,-9,null,8,15,17,16,12,4,-5,-12],"lat":50.02,"lng":-85.22},{"station":"Paris","region":"ON","dhdbt":-18,"dcdbt":30,"degday":4000,"strange":11,"ohr":15,"dgtemp":10,"janWind":15,"julWind":12,"monthlyTemps":[-6,-5,null,7,14,19,21,20,16,9,4,-3],"lat":43.2,"lng":-80.38},{"station":"Parkhill","region":"ON","dhdbt":-16,"dcdbt":31,"degday":3800,"strange":11,"ohr":14,"dgtemp":10,"janWind":19,"julWind":11,"monthlyTemps":[-5,-4,1,7,13,19,21,20,16,10,4,-2],"lat":43.15,"lng":-81.68},{"station":"Parry Sound","region":"ON","dhdbt":-24,"dcdbt":28,"degday":4640,"strange":9,"ohr":14,"dgtemp":8,"janWind":10,"julWind":10,"monthlyTemps":[-9,-7,-2,6,12,16,20,19,15,8,2,-5],"lat":45.35,"lng":-80.03},{"station":"Pelham (Fonthill)","region":"ON","dhdbt":-15,"dcdbt":30,"degday":3690,"strange":9,"ohr":15,"dgtemp":11,"janWind":13,"julWind":8,"monthlyTemps":[-5,-4,1,7,14,19,21,21,17,10,4,-2],"lat":43.03,"lng":-79.28},{"station":"Pembroke","region":"ON","dhdbt":-28,"dcdbt":30,"degday":4980,"strange":13,"ohr":15,"dgtemp":8,"janWind":11,"julWind":9,"monthlyTemps":[-12,-10,-4,5,12,17,19,18,14,7,null,-8],"lat":45.82,"lng":-77.12},{"station":"Penetanguishene","region":"ON","dhdbt":-24,"dcdbt":29,"degday":4200,"strange":10,"ohr":15,"dgtemp":9,"janWind":9,"julWind":6,"monthlyTemps":[-9,-7,-2,6,13,18,21,20,15,9,3,-4],"lat":44.78,"lng":-79.92},{"station":"Perth","region":"ON","dhdbt":-25,"dcdbt":30,"degday":4540,"strange":12,"ohr":15,"dgtemp":9,"janWind":11,"julWind":8,"monthlyTemps":[-10,-8,-2,6,14,18,21,20,15,8,2,-6],"lat":44.9,"lng":-76.25},{"station":"Petawawa","region":"ON","dhdbt":-29,"dcdbt":30,"degday":4980,"strange":13,"ohr":15,"dgtemp":8,"janWind":11,"julWind":9,"monthlyTemps":[-12,-10,-4,5,12,17,19,18,14,7,null,-8],"lat":45.9,"lng":-77.33},{"station":"Peterborough","region":"ON","dhdbt":-23,"dcdbt":30,"degday":4400,"strange":12,"ohr":15,"dgtemp":9,"janWind":13,"julWind":9,"monthlyTemps":[-8,-6,-2,6,12,17,19,19,15,8,2,-3],"lat":44.3,"lng":-78.32},{"station":"Petrolia","region":"ON","dhdbt":-16,"dcdbt":31,"degday":3640,"strange":12,"ohr":16,"dgtemp":10,"janWind":19,"julWind":12,"monthlyTemps":[-5,-4,1,7,14,19,21,21,17,10,4,-2],"lat":42.87,"lng":-82.15},{"station":"Pickering (Dunbarton)","region":"ON","dhdbt":-19,"dcdbt":30,"degday":3800,"strange":9,"ohr":15,"dgtemp":10,"janWind":17,"julWind":10,"monthlyTemps":[-5,-4,null,6,12,17,20,20,15,9,4,-2],"lat":43.82,"lng":-79.1},{"station":"Picton","region":"ON","dhdbt":-21,"dcdbt":29,"degday":3980,"strange":9,"ohr":15,"dgtemp":10,"janWind":19,"julWind":13,"monthlyTemps":[-7,-6,-1,6,13,17,21,20,16,10,4,-3],"lat":44,"lng":-77.13},{"station":"Plattsville","region":"ON","dhdbt":-19,"dcdbt":29,"degday":4150,"strange":11,"ohr":15,"dgtemp":10,"janWind":15,"julWind":11,"monthlyTemps":[-7,-6,-1,6,13,18,20,19,15,9,2,-4],"lat":43.3,"lng":-80.62},{"station":"Point Alexander","region":"ON","dhdbt":-29,"dcdbt":30,"degday":4960,"strange":12,"ohr":13,"dgtemp":8,"janWind":11,"julWind":9,"monthlyTemps":[-12,-10,-4,4,13,18,20,18,14,8,null,-6],"lat":46.13,"lng":-77.57},{"station":"Port Burwell","region":"ON","dhdbt":-15,"dcdbt":30,"degday":3800,"strange":10,"ohr":16,"dgtemp":10,"janWind":19,"julWind":11,"monthlyTemps":[-6,-5,null,6,12,17,20,19,16,9,4,-2],"lat":42.65,"lng":-80.82},{"station":"Port Colborne","region":"ON","dhdbt":-15,"dcdbt":30,"degday":3600,"strange":5,"ohr":16,"dgtemp":10,"janWind":27,"julWind":18,"monthlyTemps":[-3,-3,null,5,11,18,21,21,17,11,5,null],"lat":42.9,"lng":-79.23},{"station":"Port Elgin","region":"ON","dhdbt":-17,"dcdbt":28,"degday":4100,"strange":9,"ohr":14,"dgtemp":9,"janWind":21,"julWind":12,"monthlyTemps":[-6,-7,-1,5,11,16,19,19,15,9,4,-3],"lat":44.43,"lng":-81.4},{"station":"Port Hope","region":"ON","dhdbt":-21,"dcdbt":29,"degday":3970,"strange":9,"ohr":15,"dgtemp":10,"janWind":15,"julWind":8,"monthlyTemps":[-6,-5,null,6,12,16,20,20,16,9,4,-3],"lat":43.95,"lng":-78.3},{"station":"Port Perry","region":"ON","dhdbt":-22,"dcdbt":30,"degday":4260,"strange":13,"ohr":15,"dgtemp":9,"janWind":15,"julWind":11,"monthlyTemps":[-8,-7,-2,7,12,17,20,19,14,8,2,-4],"lat":44.1,"lng":-78.95},{"station":"Port Stanley","region":"ON","dhdbt":-15,"dcdbt":31,"degday":3850,"strange":10,"ohr":16,"dgtemp":10,"janWind":19,"julWind":11,"monthlyTemps":[-6,-5,null,6,12,17,20,19,16,9,4,-2],"lat":42.67,"lng":-81.22},{"station":"Prescott","region":"ON","dhdbt":-23,"dcdbt":29,"degday":4120,"strange":10,"ohr":15,"dgtemp":10,"janWind":18,"julWind":13,"monthlyTemps":[-8,-6,-1,6,13,19,21,20,16,10,3,-3],"lat":44.72,"lng":-75.52},{"station":"Princeton","region":"ON","dhdbt":-18,"dcdbt":30,"degday":4000,"strange":12,"ohr":15,"dgtemp":10,"janWind":15,"julWind":12,"monthlyTemps":[-6,-5,null,6,13,18,20,20,15,9,3,-3],"lat":43.17,"lng":-80.53},{"station":"Raith","region":"ON","dhdbt":-34,"dcdbt":28,"degday":5900,"strange":16,"ohr":14,"dgtemp":6,"janWind":8,"julWind":8,"monthlyTemps":[-19,-15,-9,1,9,13,16,14,9,4,-5,-15],"lat":48.83,"lng":-89.93},{"station":"Rayside-Balfour (Chelmsford)","region":"ON","dhdbt":-28,"dcdbt":29,"degday":5200,"strange":10,"ohr":12,"dgtemp":8,"janWind":17,"julWind":13,"monthlyTemps":[-12,-11,-4,4,12,17,20,19,13,8,null,-9],"lat":46.58,"lng":-81.2},{"station":"Red Lake","region":"ON","dhdbt":-35,"dcdbt":28,"degday":6220,"strange":10,"ohr":13,"dgtemp":5,"janWind":9,"julWind":11,"monthlyTemps":[-19,-15,-8,3,11,15,19,17,10,4,-7,-17],"lat":51.05,"lng":-93.82},{"station":"Renfrew","region":"ON","dhdbt":-27,"dcdbt":30,"degday":4900,"strange":13,"ohr":15,"dgtemp":9,"janWind":12,"julWind":9,"monthlyTemps":[-12,-10,-4,5,12,17,20,19,13,7,null,-8],"lat":45.47,"lng":-76.68},{"station":"Richmond Hill","region":"ON","dhdbt":-21,"dcdbt":31,"degday":4000,"strange":11,"ohr":16,"dgtemp":10,"janWind":15,"julWind":11,"monthlyTemps":[-7,-6,-1,7,13,18,21,20,15,9,3,-3],"lat":43.87,"lng":-79.45},{"station":"Rockland","region":"ON","dhdbt":-26,"dcdbt":30,"degday":4600,"strange":12,"ohr":15,"dgtemp":10,"janWind":11,"julWind":9,"monthlyTemps":[-13,-9,-3,5,13,18,21,19,14,8,1,-8],"lat":45.55,"lng":-75.29},{"station":"Sarnia","region":"ON","dhdbt":-16,"dcdbt":31,"degday":3750,"strange":11,"ohr":16,"dgtemp":10,"janWind":19,"julWind":12,"monthlyTemps":[-5,-4,1,6,13,18,21,20,16,10,4,-2],"lat":42.97,"lng":-82.38},{"station":"Sault Ste. Marie","region":"ON","dhdbt":-25,"dcdbt":29,"degday":4960,"strange":11,"ohr":14,"dgtemp":8,"janWind":14,"julWind":11,"monthlyTemps":[-10,-9,-4,4,10,15,18,18,14,7,1,-5],"lat":46.52,"lng":-84.33},{"station":"Scarborough","region":"ON","dhdbt":-20,"dcdbt":31,"degday":3800,"strange":10,"ohr":16,"dgtemp":10,"janWind":17,"julWind":13,"monthlyTemps":[-6,-5,null,7,13,18,21,20,16,9,3,-3],"lat":43.78,"lng":-79.25},{"station":"Schreiber","region":"ON","dhdbt":-34,"dcdbt":27,"degday":5960,"strange":10,"ohr":13,"dgtemp":5,"janWind":11,"julWind":10,"monthlyTemps":[-15,-13,-7,1,8,12,15,15,10,5,-3,-11],"lat":48.8,"lng":-87.25},{"station":"Seaforth","region":"ON","dhdbt":-17,"dcdbt":30,"degday":4100,"strange":12,"ohr":15,"dgtemp":9,"janWind":17,"julWind":11,"monthlyTemps":[-6,-6,-1,6,13,17,20,19,15,9,3,-3],"lat":43.55,"lng":-81.4},{"station":"Shelburne","region":"ON","dhdbt":-22,"dcdbt":29,"degday":4700,"strange":11,"ohr":15,"dgtemp":8,"janWind":14,"julWind":10,"monthlyTemps":[-8,-8,-3,5,12,16,19,18,13,7,1,-5],"lat":44.0764,"lng":-80.2044},{"station":"Simcoe","region":"ON","dhdbt":-17,"dcdbt":30,"degday":3700,"strange":11,"ohr":16,"dgtemp":10,"janWind":17,"julWind":11,"monthlyTemps":[-6,-5,null,6,13,18,21,20,16,9,4,-3],"lat":42.83,"lng":-80.3},{"station":"Sioux Lookout","region":"ON","dhdbt":-34,"dcdbt":28,"degday":5950,"strange":10,"ohr":14,"dgtemp":6,"janWind":10,"julWind":10,"monthlyTemps":[-17,-14,-7,3,10,16,19,18,12,4,-5,-14],"lat":50.07,"lng":-91.98},{"station":"Smiths Falls","region":"ON","dhdbt":-25,"dcdbt":30,"degday":4540,"strange":12,"ohr":15,"dgtemp":9,"janWind":11,"julWind":8,"monthlyTemps":[-10,-8,-2,6,14,18,21,20,15,8,2,-6],"lat":44.9,"lng":-76.02},{"station":"Smithville","region":"ON","dhdbt":-16,"dcdbt":30,"degday":3650,"strange":11,"ohr":15,"dgtemp":10,"janWind":21,"julWind":13,"monthlyTemps":[-4,-4,1,7,14,19,22,21,17,10,5,-1],"lat":43.1,"lng":-79.55},{"station":"Smooth Rock Falls","region":"ON","dhdbt":-34,"dcdbt":29,"degday":6250,"strange":12,"ohr":12,"dgtemp":5,"janWind":13,"julWind":11,"monthlyTemps":[-18,-15,-8,1,9,15,17,16,11,4,-4,-13],"lat":49.28,"lng":-81.63},{"station":"South River","region":"ON","dhdbt":-27,"dcdbt":29,"degday":5090,"strange":12,"ohr":14,"dgtemp":8,"janWind":12,"julWind":10,"monthlyTemps":[-12,-11,-4,4,11,15,19,17,12,6,-1,-8],"lat":45.83,"lng":-79.38},{"station":"Southampton","region":"ON","dhdbt":-17,"dcdbt":28,"degday":4100,"strange":9,"ohr":14,"dgtemp":9,"janWind":21,"julWind":12,"monthlyTemps":[-6,-7,-1,5,11,16,19,19,15,9,4,-3],"lat":44.48,"lng":-81.38},{"station":"St. Catharines","region":"ON","dhdbt":-16,"dcdbt":30,"degday":3540,"strange":11,"ohr":15,"dgtemp":10,"janWind":21,"julWind":13,"monthlyTemps":[-4,-4,1,7,14,19,22,21,17,10,5,-1],"lat":43.17,"lng":-79.25},